City Name,City ID,Latitude,Longitude,Max Temp(F),Humidity(%),Wind Speed (m/s),Cloudiness(%),Country Code,Date
Porohy,696483,48.69,24.26,37.4,93,5.3,0,UA,1603219784
Kloulklubed,7671223,7.04,134.26,75.2,94,8.05,90,PW,1603219784
Hobart,2163355,-42.88,147.33,53.6,81,2.57,90,AU,1603219209
Chui,3443061,-33.7,-53.46,55.24,82,15.64,100,UY,1603219784
Rikitea,4030556,-23.12,-134.97,73.33,79,14.65,0,PF,1603219145
Barrow,5880054,71.29,-156.79,24.8,92,6.93,75,US,1603219785
Bluff,2206939,-46.6,168.33,42.01,92,3,83,NZ,1603219365
Faanui,4034551,-16.48,-151.75,78.6,83,16.13,15,PF,1603219785
Puerto Ayora,3652764,-0.74,-90.35,80.6,69,23.04,40,EC,1603219221
Constitución,3893726,-35.33,-72.42,62.47,55,19.37,0,CL,1603219685
Kargopol',552465,61.51,38.95,28.62,98,8.77,4,RU,1603219786
Cherskiy,2126199,68.75,161.3,19.45,96,5.55,90,RU,1603219322
Qaanaaq,3831208,77.48,-69.36,21.38,84,6.96,0,GL,1603219786
Dikson,1507390,73.51,80.55,21.45,96,5.37,100,RU,1603219786
Nikolskoye,546105,59.7,30.79,36,80,4.47,75,RU,1603219787
Batticaloa,1250161,7.71,81.69,79.05,79,7.54,40,LK,1603219787
Tromsø,6453316,69.65,18.96,24.8,85,6.93,0,NO,1603219787
Itarema,3393692,-2.92,-39.92,83.12,64,20.87,42,BR,1603219513
Ilulissat,3423146,69.22,-51.1,42.8,56,13.87,75,GL,1603219787
Denpasar,1645528,-8.65,115.22,78.8,100,5.82,20,ID,1603219683
Tommot,2015179,58.96,126.29,25.57,97,4.29,100,RU,1603219788
Creel,4012593,27.75,-107.63,72.7,22,8.39,0,MX,1603219788
Aksarka,1512019,66.56,67.8,21.18,98,4,100,RU,1603219788
Srednekolymsk,2121025,67.45,153.68,17.53,97,4.47,98,RU,1603219788
Srandakan,1626493,-7.94,110.25,78.46,86,2.98,100,ID,1603219788
Rameswaram,1258698,9.28,79.3,83.05,81,16.98,73,IN,1603219789
Mataura,6201424,-46.19,168.86,42.01,92,3,73,NZ,1603219789
Albany,5106841,42.6,-73.97,66,76,0.56,100,US,1603219789
Meulaboh,1214488,4.14,96.13,77.52,84,3.83,43,ID,1603219672
Punta Arenas,3874787,-53.15,-70.92,48.2,45,14.99,75,CL,1603219271
Pedernales,3495137,18.04,-71.74,86,70,13.87,40,DO,1603219790
Vrangel',2013258,42.73,133.08,54,84,5.55,100,RU,1603219790
Hong Kong,1819729,22.29,114.16,73.99,68,1.99,82,HK,1603219514
Hearst,5973108,49.68,-83.67,39.51,64,2.98,0,CA,1603219790
Vardø,777019,70.37,31.11,37.4,74,8.05,40,NO,1603219790
Upernavik,3418910,72.79,-56.15,33.28,86,6.85,100,GL,1603219790
Hermanus,3366880,-34.42,19.23,55.99,73,4,0,ZA,1603219791
La Palma,5364022,33.85,-118.05,75.99,64,5.79,20,US,1603219791
Broome,5110365,42.25,-75.83,59,100,6.93,90,US,1603219084
Jamestown,5122534,42.1,-79.24,50,100,6.93,90,US,1603219460
Samālkha,1257566,29.23,77.02,72.97,20,6.13,0,IN,1603219791
Mar del Plata,3430863,-38,-57.56,59,58,13.87,0,AR,1603219284
Port Lincoln,2063036,-34.73,135.87,56.77,86,9.84,5,AU,1603219791
Bredasdorp,1015776,-34.53,20.04,55.4,71,4.7,0,ZA,1603219792
Bethel,5282297,41.37,-73.41,66.99,82,4.7,90,US,1603219792
Paredon,3521894,16.03,-93.87,88.99,59,5.66,81,MX,1603219567
Nantucket,4944903,41.28,-70.1,62.6,82,5.82,90,US,1603219792
Shimanovsk,2016701,52,127.7,41.99,86,12.75,100,RU,1603219793
Copiapó,3893656,-27.37,-70.33,64.4,63,9.17,0,CL,1603219793
Mandalgovi,2030065,45.76,106.27,20.48,81,10.02,100,MN,1603219529
Kapaa,5848280,22.08,-159.32,77,88,10.29,75,US,1603219793
Callaway,4149635,30.15,-85.57,87.01,58,11.41,20,US,1603219793
Conway,4106458,35.09,-92.44,78.8,69,8.05,90,US,1603219533
Ushuaia,3833367,-54.8,-68.3,44.6,56,19.46,40,AR,1603219360
Solnechnyy,2016307,50.72,136.63,34.59,84,6.89,99,RU,1603219514
Cayenne,3382160,4.93,-52.33,89.6,55,18.34,100,GF,1603219325
Cap Malheureux,934649,-19.98,57.61,75,71,7,1,MU,1603219794
Cidreira,3466165,-30.18,-50.21,72.03,80,9.8,16,BR,1603219794
Arraial do Cabo,3471451,-22.97,-42.03,78.8,69,16.11,0,BR,1603219456
Tuktoyaktuk,6170031,69.45,-133.04,23,85,16.11,90,CA,1603219795
Bato,1726156,13.35,123.37,77.77,90,6.53,100,PH,1603219795
Asău,686090,46.43,26.4,41,93,2.24,0,RO,1603219795
New Norfolk,2155415,-42.78,147.06,51.01,72,1.92,100,AU,1603219485
Busselton,2075265,-33.65,115.33,55.99,64,8.01,0,AU,1603219148
Sterling,4787534,39.01,-77.43,77,56,4.7,75,US,1603219659
Tasiilaq,3424607,65.61,-37.64,32,94,19.46,75,GL,1603219364
Vaini,4032243,-21.2,-175.2,69.8,77,6.93,40,TO,1603219796
Hamilton,4513583,39.18,-84.53,53.6,93,4.7,90,US,1603219501
Carnarvon,2074865,-24.87,113.63,68,77,19.46,40,AU,1603219205
Salalah,286621,17.02,54.09,82.4,54,5.82,22,OM,1603219797
Bulawayo,894701,-20.15,28.58,77.32,17,9.55,0,ZW,1603219798
Tessalit,2449893,20.2,1.01,89.31,12,7.18,0,ML,1603219798
Castro,3466704,-24.79,-50.01,79.97,48,1.7,16,BR,1603219542
Tongliao,2034400,43.61,122.27,56.26,42,15.79,73,CN,1603219798
Kaitangata,2208248,-46.28,169.85,48.99,85,1.99,100,NZ,1603219799
Touba,2280376,8.28,-7.68,75.49,81,1.92,55,CI,1603219799
Hilo,5855927,19.73,-155.09,79,60,6.93,1,US,1603219794
Vuktyl,470905,63.86,57.31,28.92,99,4.18,92,RU,1603219799
Samarai,2132606,-10.62,150.67,78.69,86,8.81,100,PG,1603219554
Soyo,2236967,-6.13,12.37,77.58,79,6.71,50,AO,1603219800
Maceió,3395981,-9.67,-35.74,82.4,65,11.41,40,BR,1603219572
Butaritari,2110227,3.07,172.79,81.73,76,12.15,100,KI,1603219800
Touros,3386213,-5.2,-35.46,86,58,14.99,40,BR,1603219222
Nizwá,286987,22.93,57.53,69.6,24,0.04,0,OM,1603219734
Yilan,1674199,24.76,121.75,78.01,99,1.01,100,TW,1603219800
Souillac,933995,-20.52,57.52,75.2,73,10.29,20,MU,1603219800
Ḩasanābād,7052836,36.55,61.05,57.2,35,2.24,0,IR,1603219801
Lavrentiya,4031637,65.58,-171,36.86,91,13.22,100,RU,1603219801
Palmas Bellas,3703523,9.23,-80.09,86,79,14.99,40,PA,1603219801
Hasaki,2112802,35.73,140.83,54,93,6.93,20,JP,1603219712
Escárcega,3527795,18.61,-90.75,85.03,66,6.42,25,MX,1603219566
Jakar,1337301,27.55,90.75,45.07,73,3.27,12,BT,1603219802
Anloga,2304548,5.79,0.9,80.6,88,12.75,20,GH,1603219802
Balkhash,1525798,46.84,74.98,49.86,41,10.31,0,KZ,1603219802
Bat Khela,1183090,34.62,71.97,66.36,33,5.93,0,PK,1603219803
Yangi Marg`ilon,1513491,40.43,71.72,57.2,50,6.93,0,UZ,1603219803
Falāvarjān,418851,32.56,51.51,57.2,11,6.93,0,IR,1603219804
Namatanai,2090021,-3.67,152.43,78.62,79,2.44,64,PG,1603219804
Norman Wells,6089245,65.28,-126.83,19.4,85,9.17,75,CA,1603219222
Atuona,4020109,-9.8,-139.03,77.47,75,19.04,0,PF,1603219804
Dom Pedrito,3464547,-30.98,-54.67,71.19,72,18.39,60,BR,1603219805
Raudeberg,3146487,61.99,5.14,44.6,87,17.22,75,NO,1603219805
Severo-Kuril'sk,2121385,50.68,156.12,40.42,71,25.59,77,RU,1603219375
Boa Vista,3664980,2.82,-60.67,93.2,44,11.41,75,BR,1603219784
Três Lagoas,3446098,-20.75,-51.68,87.46,51,10.2,80,BR,1603219806
Torbay,6167817,47.67,-52.73,60.8,67,13.87,75,CA,1603219360
Churapcha,2025241,62,132.43,13.87,96,3.91,100,RU,1603219806
‘Āhuimanu,5856516,21.44,-157.84,82.4,78,9.8,20,US,1603219807
Ancud,3899695,-41.87,-73.82,53.6,52,10.29,0,CL,1603219627
São Luís de Montes Belos,3448558,-16.52,-50.37,80.87,60,2.37,100,BR,1603219807
Nacala,1035025,-14.54,40.67,75.9,82,3.78,0,MZ,1603219807
Mahibadhoo,1337605,3.78,72.97,82.8,79,11.97,100,MV,1603219576
Biltine,244878,14.53,20.92,87.49,13,8.68,0,TD,1603219808
Pevek,2122090,69.7,170.31,30.76,95,19.86,100,RU,1603219808
Saldanha,3361934,-33.01,17.94,59,67,12.75,0,ZA,1603219808
Forsytheganj,10722858,52.63,29.73,39.45,85,5.12,99,BY,1603219808
Khatanga,2022572,71.97,102.5,6.96,95,8.01,83,RU,1603219808
Big Rapids,4986020,43.7,-85.48,46.99,70,6.93,75,US,1603219808
Ponta do Sol,2264557,32.67,-17.1,71.6,53,2.24,20,PT,1603219478
Praia,3374333,14.92,-23.51,87.8,62,13.87,100,CV,1603219809
Havre-St-Pierre,5972291,50.23,-63.6,44.6,93,9.17,90,CA,1603219445
Cañazas,3713196,8.32,-81.22,79.86,84,9.71,99,PA,1603219809
Sitka,5557293,57.05,-135.33,42.8,81,3.36,90,US,1603219105
Fortuna,5563839,40.6,-124.16,62.01,77,8.05,1,US,1603219809
Acapulco de Juárez,3533462,16.86,-99.89,86,74,6.93,20,MX,1603219331
Sola,2134814,-13.88,167.55,77,94,5.82,90,VU,1603219810
Kramat,7375890,-8.13,113.45,74.93,80,2.82,21,ID,1603219810
Paris,2988507,48.85,2.35,57.99,93,11.41,90,FR,1603219385
Banfora,2362909,10.63,-4.77,76.55,75,7.61,100,BF,1603219810
Neftçala,147425,39.37,49.25,64.26,74,15.73,38,AZ,1603219810
Roald,3141667,62.58,6.13,41,86,12.75,90,NO,1603219811
Talara,3691582,-4.58,-81.27,77,69,14.99,70,PE,1603219377
North Bend,5742974,43.41,-124.22,66.99,77,6.08,40,US,1603219811
Vachi,539511,42.07,47.22,43.95,82,1.23,92,RU,1603219811
Benguela,3351663,-12.58,13.41,74.75,79,5.14,100,AO,1603219811
Kerrville,4703078,30.05,-99.14,82.99,58,14.99,75,US,1603219812
Auki,2109701,-8.77,160.7,77.81,83,5.55,100,SB,1603219812
Nova Olímpia,3456137,-14.8,-57.29,91.58,41,8.34,72,BR,1603219812
Mossamedes,3347019,-15.2,12.15,69.53,80,4.09,90,AO,1603219387
Riyadh,108410,24.69,46.72,73.4,23,2.24,0,SA,1603219599
Codrington,2171099,-38.27,141.97,44.62,90,3.44,82,AU,1603219813
Cape Town,3369157,-33.93,18.42,57.99,67,13.87,0,ZA,1603219473
Pringsewu,1630639,-5.36,104.97,74.5,91,4.21,100,ID,1603219813
Władysławowo,3081752,54.79,18.4,48.99,81,11.41,100,PL,1603219813
Bambous Virieux,1106677,-20.34,57.76,75.2,73,10.29,20,MU,1603219542
Gravdal,3155152,68.12,13.5,37.4,74,6.93,40,NO,1603219814
Marawi,1701054,8,124.29,75,95,5.99,100,PH,1603219612
Plettenberg Bay,964712,-34.05,23.37,56.14,74,4.59,0,ZA,1603219814
Borovoy,1508894,55.43,86.08,35.6,80,4.47,40,RU,1603219814
Knysna,988698,-34.04,23.05,57.2,76,3.36,75,ZA,1603219815
Sheopur,1256593,25.67,76.7,77.23,22,7.52,0,IN,1603219815
Maniitsoq,3421982,65.42,-52.9,35.51,91,18.59,100,GL,1603219552
Port Alfred,964432,-33.59,26.89,60.66,68,15.86,0,ZA,1603219306
Caravelas,3466980,-17.71,-39.25,77.5,79,8.16,100,BR,1603219488
Whitehorse,6180550,60.72,-135.05,19.4,67,6.93,75,CA,1603219545
Żurrieq,2562250,35.83,14.47,66.99,77,4.7,20,MT,1603219815
São Filipe,3374210,14.9,-24.5,85.98,55,10.67,100,CV,1603219548
Avarua,4035715,-21.21,-159.78,75.2,94,1.12,36,CK,1603219816
Qadirpur Ran,1167648,30.29,71.67,78.8,54,7.18,0,PK,1603219816
Marsá Maţrūḩ,352733,31.35,27.25,75.13,70,8.12,15,EG,1603219551
Kulhudhuffushi,1337613,6.62,73.07,81.97,80,10.58,5,MV,1603219575
Shalya,495915,57.25,58.73,33.01,95,6.04,0,RU,1603219817
Beruwala,1249931,6.48,79.98,79.45,85,9.26,1,LK,1603219817
Geraldton,2070998,-28.77,114.6,66.2,72,16.11,90,AU,1603219810
Thaton,1292288,16.92,97.37,74.5,93,4.97,100,MM,1603219817
Mayumba,2399001,-3.43,10.66,77.56,87,7.2,100,GA,1603219582
Ermelo,1005125,-26.53,29.98,62.56,78,11.7,88,ZA,1603219818
Saint-Max,2978105,48.7,6.21,62.6,67,6.93,100,FR,1603219818
Hithadhoo,1282256,-0.6,73.08,82.85,78,13.06,99,MV,1603219818
San Cristobal,3628473,7.77,-72.22,87.8,58,13.87,40,VE,1603219399
Prince Rupert,6113406,54.32,-130.32,42.8,93,6.93,90,CA,1603219640
Imeni Poliny Osipenko,2023584,52.42,136.49,30.78,94,9.71,100,RU,1603219819
Aliwal North,1023309,-30.69,26.71,58.3,48,19.6,0,ZA,1603219819
Xining,1788852,36.62,101.77,37.29,65,0.51,0,CN,1603219522
Tuatapere,2180815,-46.13,167.68,43,93,3,29,NZ,1603219819
Dunedin,2191562,-45.87,170.5,48.99,85,1.01,100,NZ,1603219480
Saint-Pierre,935214,-21.34,55.48,72,78,4.7,7,RE,1603219492
Sinnamary,3380290,5.38,-52.95,85.21,64,14.41,100,GF,1603219819
Ribeira Grande,3372707,38.52,-28.7,66.2,59,5.82,40,PT,1603219492
Jiuquan,1279945,39.74,98.52,40.57,56,1.3,0,CN,1603219820
Baghlan,1147540,36.13,68.71,50.97,56,1.52,0,AF,1603219820
Uray,1488429,60.12,64.78,34.99,95,7.96,99,RU,1603219820
Smithers,6149996,54.78,-127.17,30.2,100,2.24,75,CA,1603219569
Matadi,2313002,-5.82,13.45,81.16,66,7.78,41,CD,1603219821
Tiksi,2015306,71.69,128.87,10.74,93,13.4,100,RU,1603219389
Yar-Sale,1486321,66.83,70.83,24.69,99,2.68,100,RU,1603219528
Naze,1855540,28.37,129.48,73.4,94,9.17,75,JP,1603219553
Rafsanjān,118994,30.41,55.99,52,37,3.06,0,IR,1603219821
Yellowknife,6185377,62.46,-114.35,27,73,3.36,75,CA,1603219821
Upington,945945,-28.45,21.26,66.2,12,5.82,0,ZA,1603219821
Clyde River,5924351,70.47,-68.59,30.2,74,12.75,1,CA,1603219497
Hervey Bay,2146219,-25.3,152.85,68,77,9.17,90,AU,1603219822
Pisco,3932145,-13.7,-76.22,68,77,10.29,40,PE,1603219507
Saint-Philippe,935215,-21.36,55.77,72,78,3.36,33,RE,1603219822
Lüderitz,3355672,-26.65,15.16,69.1,37,28.48,0,NA,1603219822
Egvekinot,4031742,66.32,-179.17,34.16,100,7.16,100,RU,1603219208
Mananjary,1061335,-21.22,48.33,71.42,86,7.14,11,MG,1603219823
Mahébourg,934322,-20.41,57.7,75.2,73,10.29,20,MU,1603219361
Am Timan,245338,11.03,20.28,79.59,35,3,0,TD,1603219823
Novoagansk,1497210,61.94,76.66,31.37,99,6.73,100,RU,1603219823
Longyearbyen,2729907,78.22,15.64,23,79,5.82,2,SJ,1603219823
Djibouti,223816,11.5,42.5,86,58,8.57,1,DJ,1603219823
Lebu,3883457,-37.62,-73.65,53.8,63,19.82,0,CL,1603219823
Nuuk,3421319,64.18,-51.72,37.4,86,13.87,75,GL,1603219824
Kruisfontein,986717,-34,24.73,57,81,3,0,ZA,1603219824
Mercedes,3430708,-34.65,-59.43,62.01,54,5.01,100,AR,1603219824
Vila Franca do Campo,3372472,37.72,-25.43,62.6,63,16.11,40,PT,1603219824
Warmbad,3352263,-28.45,18.73,64.94,24,7.7,0,NA,1603219824
Coahuayana Viejo,4013679,18.73,-103.68,80.6,78,5.37,20,MX,1603219512
Verkhnevilyuysk,2013639,63.45,120.32,16.34,96,3.71,34,RU,1603219368
Ishigaki,1861416,24.34,124.16,80.73,82,23.49,100,JP,1603219825
Nanortalik,3421765,60.14,-45.24,37.69,86,4.76,100,GL,1603219825
Fukuechō,1863997,32.69,128.84,70.05,61,8.68,22,JP,1603219825
Tripoli,2210247,32.88,13.19,70.9,51,8.16,9,LY,1603219649
Flin Flon,5954718,54.77,-101.86,30.2,50,3.36,90,CA,1603219491
Kapoeta,372884,4.77,33.59,82.72,58,1.45,83,SS,1603219825
Sistranda,3139597,63.73,8.83,39.2,69,14.99,100,NO,1603219117
Nizhniy Kuranakh,2019135,58.84,125.49,24.91,97,3.44,100,RU,1603219826
Moose Factory,6078372,51.26,-80.61,41,48,8.05,75,CA,1603219591
Harper,2276492,4.38,-7.72,77.94,81,7.27,90,LR,1603219826
Māndleshwar,1263850,22.18,75.67,80.65,73,0.81,0,IN,1603219826
Jaraguá do Sul,3460102,-26.49,-49.07,80.01,83,1.99,1,BR,1603219826
Henties Bay,3356832,-22.12,14.28,59,84,6.4,0,NA,1603219283
Saint Paul Harbor,5866583,57.79,-152.41,42.8,56,9.17,1,US,1603219827
Requena,2511930,39.49,-1.1,61,83,10,72,ES,1603219380
Ürümqi,1529102,43.8,87.6,46.4,45,4.47,0,CN,1603219568
Şebinkarahisar,739914,40.29,38.42,48.51,89,2.75,53,TR,1603219827
Dingle,1714733,11,122.67,76.17,90,7.94,100,PH,1603219827
Goderich,5962442,43.75,-81.72,52,72,4.32,100,CA,1603219554
San Patricio,4726521,28.02,-97.52,89.6,55,13.87,40,US,1603219322
Bengkulu,1649150,-3.8,102.27,77.05,80,3.49,100,ID,1603219828
Waipawa,2206874,-41.41,175.52,51.8,87,6.93,100,NZ,1603219828
Cabo San Lucas,3985710,22.89,-109.91,95,52,6.93,5,MX,1603219202
Port-Gentil,2396518,-0.72,8.78,77,94,11.41,75,GA,1603219828
Krasnosel'kup,1502073,65.7,82.47,23.34,98,8.99,99,RU,1603219829
Thinadhoo,1337610,0.53,72.93,82.76,77,11.95,100,MV,1603219575
Leningradskiy,2123814,69.38,178.42,33.26,88,11.34,100,RU,1603219829
Mandan,5690366,46.83,-100.89,35.6,100,6.93,90,US,1603219829
Necochea,3430443,-38.55,-58.74,55.99,82,8.99,90,AR,1603219477
Savonlinna,637292,61.87,28.88,32,89,5.82,90,FI,1603219829
Katsuura,2112309,35.13,140.3,60.8,72,13.87,40,JP,1603219829
Kholtoson,2022369,50.3,103.31,24.17,76,2.82,100,RU,1603219584
Kavieng,2094342,-2.57,150.8,81.14,80,11.95,100,PG,1603219525
Saskylakh,2017155,71.92,114.08,20.7,97,7.27,98,RU,1603219830
Bathsheba,3374083,13.22,-59.52,87.8,66,13.87,75,BB,1603219830
East London,1006984,-33.02,27.91,60.8,77,13.87,20,ZA,1603219490
Thompson,6165406,55.74,-97.86,30.2,63,3.36,90,CA,1603219830
Lac du Bonnet,6014443,50.25,-96.06,36,98,10,100,CA,1603219831
Tinskoy,1489571,56.15,96.92,33.48,94,10.18,100,RU,1603219831
Arrondissement de Pontivy,2986159,48,-3,60.01,93,12.75,75,FR,1603219831
Rabaul,2087894,-4.2,152.17,79.59,78,5.06,70,PG,1603219831
Baykit,1510689,61.67,96.37,23.13,96,1.05,97,RU,1603219831
Ketchikan,5554428,55.34,-131.65,42.8,100,3.36,40,US,1603219831
Xai-Xai,1024552,-25.05,33.64,74.41,81,25.39,55,MZ,1603219384
Ahipara,2194098,-35.17,173.17,58.91,77,4.68,100,NZ,1603219832
Øksfjord,778362,70.24,22.35,33.8,86,6.93,20,NO,1603219832
Narsaq,3421719,60.92,-46.05,35.6,93,2.24,75,GL,1603219832
Mayo,4362001,38.89,-76.51,73.99,77,8.05,40,US,1603219632
Inhambane,1045114,-23.86,35.38,74.39,87,10.74,0,MZ,1603219832
Shiyan,1794903,32.65,110.78,55.58,74,6.33,98,CN,1603219833
Pedasí,3703239,7.53,-80.03,80.11,84,19.89,80,PA,1603219833
Lerik,147611,38.77,48.41,66.2,72,4.7,90,AZ,1603219833
Arman',2127060,59.7,150.17,27.43,83,4.99,66,RU,1603219451
São João da Barra,3448903,-21.64,-41.05,77,69,16.11,75,BR,1603219556
Pemangkat,1631637,1.17,108.97,78.87,86,3.15,100,ID,1603219833
Barranca,3946820,-10.75,-77.77,67.95,68,7.31,16,PE,1603219834
Kärdla,591632,59,22.75,39.99,84,3,100,EE,1603219834
Belle Fourche,5762718,44.67,-103.85,42.01,86,11.41,97,US,1603219748
Blagoyevo,576093,63.37,47.92,27.14,99,1.77,76,RU,1603219568
Luleå,604490,65.58,22.15,23,100,4.7,75,SE,1603219834
Berdigestyakh,2026861,62.1,126.7,21,98,1.9,100,RU,1603219834
Tilichiki,2120591,60.47,166.1,39.15,99,14.25,100,RU,1603219835
Shache,1280037,38.42,77.24,40.96,66,0.96,0,CN,1603219835
Chokurdakh,2126123,70.63,147.92,13.87,97,2.24,91,RU,1603219835
Prizren,786712,42.21,20.74,46.99,65,1.95,0,XK,1603219835
Aklavik,5882953,68.22,-135.01,23,85,14.99,90,CA,1603219835
Cheremnoye,1508230,53.17,83.21,44.6,36,13.42,94,RU,1603219836
Bonavista,5905393,48.65,-53.11,54.68,82,15.64,100,CA,1603219576
Aquiraz,3407407,-3.9,-38.39,86,51,19.46,20,BR,1603219836
Liverpool,2644210,53.41,-2.98,59,77,16.11,40,GB,1603219565
Wuwei,1803936,37.93,102.64,48,37,4.76,0,CN,1603219836
Caniço,2270258,32.63,-16.85,71.6,53,2.24,20,PT,1603219836
Khovd,1516048,48.01,91.64,29.08,82,1.48,40,MN,1603219837
Samur,498904,41.83,48.49,54.32,79,2.57,3,RU,1603219837
Pacific Grove,5380437,36.62,-121.92,66.2,82,4.23,40,US,1603219767
Sijunjung,1627185,-0.69,100.95,72.34,88,1.45,100,ID,1603219837
Miyako,2111884,39.64,141.95,50.27,68,4.76,0,JP,1603219837
Shitanjing,1794971,39.23,106.34,38.68,52,6.06,0,CN,1603219838
Lorengau,2092164,-2.02,147.27,81.12,69,2.3,100,PG,1603219539
Cockburn Town,3576994,21.46,-71.14,86,58,8.05,40,TC,1603219455
Pochutla,3517970,15.74,-96.47,91,59,11.41,40,MX,1603219620
Chikwawa,931070,-16.03,34.8,87.06,34,2.17,17,MW,1603219838
Dhidhdhoo,1337612,6.88,73.1,81.97,80,10.76,5,MV,1603219554
San Jose,5392171,37.34,-121.89,79,56,2.95,1,US,1603219393
Chiang Khong,1611197,20.26,100.4,69.8,100,1.7,90,TH,1603219839
Balotra,1277527,25.83,72.23,87.17,52,7.92,0,IN,1603219839
Dhārchula,1272864,29.85,80.53,57.4,50,3.83,0,IN,1603219839
Lokoja,2331939,7.8,6.74,79.32,80,3.06,41,NG,1603219839
Isla Mujeres,3526756,21.23,-86.73,86,70,11.41,75,MX,1603219839
Mount Isa,2065594,-20.73,139.5,80.6,26,8.05,40,AU,1603219499
Mahon,2514301,39.89,4.27,68,88,13.87,20,ES,1603219840
Alice Springs,2077895,-23.7,133.88,69.8,77,5.82,0,AU,1603219546
Foça,314903,38.67,26.76,68,60,10.29,75,TR,1603219840
Atambua,1651103,-9.11,124.89,73.94,78,1.74,100,ID,1603219840
Opuwo,3354077,-18.06,13.84,74.48,23,8.3,0,NA,1603219841
Guerrero Negro,4021858,27.98,-114.06,79.5,58,12.59,0,MX,1603219579
Ust-Nera,2120048,64.57,143.2,4.82,87,4.63,81,RU,1603219841
Whakatane,2208330,-37.96,176.99,57,99,3,100,NZ,1603219841
Mahajanga,1062663,-15.72,46.32,78.8,74,3.36,20,MG,1603219364
Fort Frances,5955826,48.6,-93.4,33.01,72,9.17,90,CA,1603219842
Watsa,204283,3.04,29.54,65.55,98,1.77,100,CD,1603219533
Sobolevo,525426,54.43,31.9,33.98,90,4.34,70,RU,1603219560
Kahului,5847411,20.89,-156.47,80.6,57,4.7,20,US,1603219746
Airai,1651810,-8.93,125.41,60.4,74,1.34,100,TL,1603219374
Bay Roberts,5895424,47.6,-53.26,60.8,67,13.87,75,CA,1603219842
Isangel,2136825,-19.55,169.27,69.8,94,10.27,75,VU,1603219193
Onalaska,5265702,43.88,-91.24,37.99,80,9.17,90,US,1603219660
Rosarito,3988392,32.33,-117.03,71.6,68,3.36,5,MX,1603219737
Bossangoa,2388036,6.49,17.46,76.48,74,1.19,0,CF,1603219843
Nísia Floresta,3393922,-6.09,-35.21,86,58,14.99,40,BR,1603219690
Crotone,2524881,39.09,17.12,57.2,58,5.82,0,IT,1603219843
Taoudenni,2450173,22.68,-3.98,85.35,15,9.26,0,ML,1603219502
Hambantota,1244926,6.12,81.12,79.39,82,16.64,1,LK,1603219522
Zarichne,687652,51.81,26.13,42.98,81,5.97,96,UA,1603219844
Comodoro Rivadavia,3860443,-45.87,-67.5,53.6,56,17.22,0,AR,1603219248
Alquízar,3569136,22.81,-82.58,82.4,78,6.93,75,CU,1603219844
Klaksvík,2618795,62.23,-6.59,37.4,86,2.24,65,FO,1603219736
Khandyga,2022773,62.67,135.6,15.93,97,3.85,96,RU,1603219527
Saint George,5546220,37.1,-113.58,68,16,3.36,1,US,1603219401
High Level,5975004,58.52,-117.14,17.6,92,4.36,40,CA,1603219220
Abu Kamal,174448,34.45,40.92,70.57,36,3.22,0,SY,1603219845
Fīrozpur Jhirka,1271881,27.8,76.95,76.19,18,2.8,0,IN,1603219845
Burnie,2173125,-41.07,145.92,46.99,79,4,100,AU,1603219845
Westport,4845585,41.14,-73.36,66.99,82,4.7,90,US,1603219352
Mpulungu,175961,-8.76,31.11,79.39,53,0.54,100,ZM,1603219846
Oranjemund,3354071,-28.55,16.43,59.76,76,24.52,0,NA,1603219846
Talaya,2120769,61.38,152.75,13.62,92,0.81,50,RU,1603219846
Port Blair,1259385,11.67,92.75,81.09,84,14,83,IN,1603219585
Corn Island,3620266,12.17,-83.04,81.82,79,7.96,43,NI,1603219846
Dandong,2037886,40.13,124.39,54.66,81,6.69,100,CN,1603219846
Lewisburg,4636442,35.45,-86.79,78.01,60,9.17,90,US,1603219847
Puerto Escondido,3520994,15.85,-97.07,86.04,65,6.11,100,MX,1603219568
Idaho Falls,5596475,43.47,-112.03,54,50,16.11,90,US,1603219847
Sosnogorsk,490391,63.6,53.88,29.23,99,4.54,100,RU,1603219847
Cardston,5916821,49.2,-113.3,33.01,74,9.17,75,CA,1603219847
Dalbandin,1180729,28.89,64.41,56.61,29,5.28,0,PK,1603219847
Lagoa,3372964,39.05,-27.98,63.61,68,27.69,13,PT,1603219848
Alferrarede,2272010,39.48,-8.17,62.01,96,3,100,PT,1603219848
Te Anau,2181625,-45.42,167.72,36.93,83,1.19,22,NZ,1603219480
Amapá,3407762,1,-52,93.58,36,4.07,99,BR,1603219848
Nishihara,1855342,26.18,127.76,80.6,74,17.22,75,JP,1603219848
Nagorsk,523583,59.32,50.81,33.44,94,3.74,97,RU,1603219849
Haines Junction,5969025,60.75,-137.51,26.92,86,2.35,100,CA,1603219849
Shingū,1847947,33.73,135.98,58.66,77,7.4,44,JP,1603219733
Majene,1636806,-3.54,118.97,79.43,78,7.65,100,ID,1603219850
Khāsh,1160571,28.22,61.22,46.74,44,3.36,0,IR,1603219850
Ambon City,1651531,-3.7,128.18,82.99,88,1.01,68,ID,1603219612
High Prairie,5975034,55.43,-116.49,30.38,81,2.93,100,CA,1603219814
Kiryat Gat,293842,31.61,34.76,79,100,5.28,0,IL,1603219850
Monção,2737523,42.08,-8.48,59,93,2.24,90,PT,1603219850
Sechura,3691954,-5.56,-80.82,74.64,56,16.67,17,PE,1603219557
Oberá,3430340,-27.49,-55.12,89.35,35,4.74,59,AR,1603219851
The Valley,3573374,18.22,-63.06,86,74,9.17,20,AI,1603219851
Hay River,5972762,60.82,-115.8,23,92,12.75,75,CA,1603219851
Umeå,602150,63.83,20.26,32,97,3.36,75,SE,1603219851
Lohārdagā,1264839,23.43,84.68,73.4,83,1.77,25,IN,1603219851
Abrau-Dyurso,584365,44.69,37.59,42.8,81,8.12,0,RU,1603219851
Sioux Lookout,6148373,50.1,-91.92,33.8,50,6.93,75,CA,1603219327
Havøysund,779622,71,24.66,30.2,92,5.82,40,NO,1603219852
Sarkand,1519691,45.41,79.92,56.03,28,4.34,0,KZ,1603219379
George Town,1735106,5.41,100.34,82.4,94,3.36,20,MY,1603219790
Skibbereen,2961459,51.55,-9.27,51.8,93,17.22,40,IE,1603219852
Departamento de Maldonado,3441890,-34.67,-54.92,55.4,71,17.22,100,UY,1603219826
Bayir,304183,37.27,28.22,66.2,72,6.93,75,TR,1603219852
Matara,1235846,5.95,80.54,78.03,88,9.13,1,LK,1603219379
Agirish,1512101,61.92,63.02,30.56,98,4.63,94,RU,1603219853
Anadyr,2127202,64.75,177.48,41,86,20.13,75,RU,1603219853
Khanbari,1283217,27.37,87.2,65.66,65,1.79,7,NP,1603219853
Genhe,2037252,50.78,121.52,31.6,93,2.19,100,CN,1603219853
Bandarbeyla,64814,9.49,50.81,79.36,72,3.74,0,SO,1603219477
Lebyazh'ye,1500764,55.27,66.49,46.6,74,6.51,100,RU,1603219853
Mokhsogollokh,2019867,61.47,128.92,19.81,98,2.3,100,RU,1603219854
Wilmington,4499379,34.23,-77.94,80.6,69,3.36,75,US,1603219057
Stokmarknes,3136690,68.56,14.91,39.2,64,10.29,60,NO,1603219854
Coquimbo,3893629,-29.95,-71.34,60.8,67,18.34,0,CL,1603219854
Hofn,2630299,64.25,-15.21,37.17,73,5.93,0,IS,1603219854
Utete,149070,-7.99,38.76,75.27,79,6.33,0,TZ,1603219855
Killybegs,2963295,54.63,-8.45,55.4,87,11.41,40,IE,1603219855
Gawler,2071059,-34.6,138.73,57.99,73,7,91,AU,1603219855
Santa Isabel Rio Negro,3662489,-0.41,-65.02,92.03,52,2.66,96,BR,1603219855
Port Elizabeth,964420,-33.92,25.57,59,77,5.82,20,ZA,1603219492
San Isidro,3929631,-12.12,-77.05,68,68,9.17,75,PE,1603219855
Buin,3897774,-33.73,-70.75,82,22,8.05,0,CL,1603219856
Beihai,1816705,21.48,109.1,66.34,75,26.49,7,CN,1603219856
Siilinjärvi,636947,63.08,27.67,30.2,86,6.93,90,FI,1603219856
Olafsvik,3414079,64.89,-23.71,41.7,90,15.37,100,IS,1603219856
Ballaghaderreen,2966784,53.9,-8.58,53.01,99,17,85,IE,1603219856
Skjervøy,777682,70.03,20.97,33.8,86,6.93,20,NO,1603219471
Uttaradit,1605214,17.67,100.5,67.57,98,2.39,100,TH,1603219857
Kununurra,2068110,-15.77,128.73,78.8,88,2.73,0,AU,1603219571
Laguna,5364271,38.42,-121.42,80.01,29,3.36,5,US,1603219857
Vao,2137773,-22.67,167.48,72.68,82,17.38,0,NC,1603219857
Marsh Harbour,3571913,26.54,-77.06,81.46,76,21.45,100,BS,1603219857
Sibolga,1213855,1.74,98.78,77.54,81,2.95,24,ID,1603219857
Nemuro,2128975,43.32,145.57,50.04,69,1.25,31,JP,1603219534
Wangaratta,2144764,-36.37,146.33,46.99,100,2.89,40,AU,1603219858
Nushki,1168749,29.55,66.02,49.84,42,1.77,0,PK,1603219858
Bentonville,4101260,36.37,-94.21,62.6,100,6.93,90,US,1603219607
Pallapatti,1257629,11.66,78.13,73.85,92,2.33,100,IN,1603219858
Novopokrovka,699328,49.84,36.55,41,75,8.95,0,UA,1603219858
Praia,3374333,14.92,-23.51,87.8,62,13.87,100,CV,1603219859
Baker City,5712169,44.77,-117.83,53.6,54,4.7,90,US,1603219859
Iquitos,3696183,-3.75,-73.25,89.6,55,16.11,40,PE,1603219859
Quelimane,1028434,-17.88,36.89,78.42,75,9.69,0,MZ,1603219523
Viedma,3832899,-40.81,-63,73,23,1.99,0,AR,1603219333
Ban Dung,1619650,17.7,103.26,72,89,9.04,100,TH,1603219859
Esperance,2071860,-33.87,121.9,59,100,11.41,90,AU,1603219859
Huarmey,3939168,-10.07,-78.15,69.67,65,9.06,7,PE,1603219860
Casper,5820705,42.87,-106.31,48.99,61,5.82,1,US,1603219860
Maturin,3778045,9.75,-63.18,90.41,56,3.62,18,VE,1603219860
Lamu,189741,-2.27,40.9,80.6,74,6.93,1,KE,1603219479
Puerto del Rosario,2512186,28.5,-13.86,80.6,69,8.05,40,ES,1603219499
Jalu,86049,29.03,21.55,73.94,54,12.59,0,LY,1603219507
Deputatsky,2028164,69.3,139.9,9.43,97,2.64,100,RU,1603219861
Kataysk,1504212,56.29,62.58,37.76,80,7.61,0,RU,1603219861
Alofi,4036284,-19.06,-169.92,73.4,88,12.75,100,NU,1603219861
George Town,1735106,5.41,100.34,82.4,94,3.36,20,MY,1603219861
Pecos,5528182,31.42,-103.49,82.4,28,6.93,1,US,1603219492
Peniche,2264923,39.36,-9.38,64,91,15.99,100,PT,1603219386
Atar,2381334,20.52,-13.05,92.88,20,8.14,0,MR,1603219619
Alta Floresta,6316343,-9.88,-56.09,96.31,33,1.12,91,BR,1603219543
Waingapu,1622318,-9.66,120.26,78.98,77,2.3,98,ID,1603219862
Voyvozh,471308,62.89,54.96,27.45,99,3.15,99,RU,1603219862
Baghdad,98182,33.34,44.4,78.69,19,9.66,0,IQ,1603219852
Chudovo,567774,59.12,31.68,31.73,97,4.59,89,RU,1603219863
Half Moon Bay,5354943,37.46,-122.43,78.01,77,3.36,5,US,1603219630
Tadine,2138285,-21.55,167.88,72.63,83,11.54,0,NC,1603219863
Porto-Novo,2392087,6.5,2.6,80.6,88,11.41,40,BJ,1603219752
Quanzhou,1797353,24.91,118.59,75.2,60,4.47,75,CN,1603219863
Kaduqli,373141,11.02,29.72,84.99,41,2.64,72,SD,1603219864
Buala,2109528,-8.14,159.59,80.76,76,5.19,96,SB,1603219864
Uruana,3445712,-15.5,-49.69,85.12,48,6.02,60,BR,1603219864
Kinablangan,1708743,7.69,126.55,79.21,77,5.26,100,PH,1603219864
Najrān,103630,17.49,44.13,71.6,26,4.7,0,SA,1603219864
Flinders,6255012,-34.58,150.86,61,87,1.01,7,AU,1603219385
Huilong,1806840,31.81,121.66,66,86,3.47,100,CN,1603219865
Eyl,60019,7.98,49.82,80.78,75,8.79,0,SO,1603219535
Labuhan,8079926,-6.88,112.21,81.03,79,4.83,21,ID,1603219200
Vanavara,2013727,60.34,102.28,22.05,98,3.67,81,RU,1603219520
Provideniya,4031574,64.38,-173.3,40.35,95,14.76,100,RU,1603219155
Berekum,2303125,7.45,-2.58,73.81,94,1.45,100,GH,1603219865
Belmopan,3582672,17.25,-88.77,87.01,55,1.01,82,BZ,1603219865
Nago,1856068,26.59,127.98,78.8,74,13.87,40,JP,1603219866
Broken Hill,2173911,-31.95,141.43,62.6,39,6.13,9,AU,1603219866
Amahai,1651591,-3.33,128.92,82.99,88,1.25,76,ID,1603219866
Vorukh,1220164,39.85,70.58,52.59,38,5.03,0,TJ,1603219866
Nortelândia,3456248,-14.45,-56.8,84.22,60,10.36,84,BR,1603219866
Polis,146137,35.04,32.43,75.2,69,12.75,20,CY,1603219867
Çayeli,749502,41.09,40.73,61.16,78,1.36,100,TR,1603219867
Staryy Nadym,1490918,65.61,72.68,25.18,98,6.49,100,RU,1603219568
Trogir,3188763,43.51,16.25,60.8,63,13.87,0,HR,1603219867
Martil,2542987,35.62,-5.28,68,82,1.12,75,MA,1603219868
Takoradze,2294915,4.88,-1.76,77.92,86,10.11,100,GH,1603219868
Okha,2122614,53.57,142.95,31.12,90,9.69,0,RU,1603219868
Talnakh,1490256,69.49,88.4,6.8,84,4.47,75,RU,1603219212
Kudahuvadhoo,1337607,2.67,72.89,82.26,79,12.97,100,MV,1603219868
Santa Ana,5392900,33.75,-117.87,75,60,5.82,40,US,1603219868
Saint Anthony,5044290,45.02,-93.22,32,92,4.7,90,US,1603219522
Kaeo,2189343,-35.1,173.78,53.01,95,1.9,100,NZ,1603219529
Bulalacao,1723002,12.33,121.34,80.4,83,16.37,100,PH,1603219869
Strezhevoy,1490796,60.73,77.59,33.8,100,8.95,90,RU,1603219869
Onega,515246,63.91,38.14,30.36,96,7,26,RU,1603219511
Araouane,2460954,18.9,-3.53,91.26,12,6.55,0,ML,1603219869
Talgar,1518518,43.3,77.24,51.8,32,6.71,0,KZ,1603219869
Bahía Blanca,3865086,-38.72,-62.27,70.47,23,9.19,93,AR,1603219593
Namuac,1698354,18.61,121.17,79.7,89,17.13,100,PH,1603219870
Kourou,3381303,5.16,-52.65,89.6,59,16.11,100,GF,1603219870
Magadan,2123628,59.57,150.8,28.4,84,3.62,27,RU,1603219596
Søvik,3137344,65.93,12.47,35.6,51,23.04,0,NO,1603219870
Udachny,2014624,66.42,112.4,8.6,92,4.47,90,RU,1603219870
Sajanan,2467368,37.06,9.24,73.4,40,5.82,0,TN,1603219871
Esna,355449,25.29,32.55,80.89,19,4.16,0,EG,1603219871
Umluj,100926,25.02,37.27,82.49,48,5.55,0,SA,1603219871
Tsimmerbude,485660,54.67,20.13,46.4,87,8.95,100,RU,1603219632
Sławno,3085610,54.36,16.68,49.77,77,9.66,100,PL,1603219871
Umarkhed,1253861,19.6,77.7,73.9,86,0.56,100,IN,1603219871
Lompoc,5367788,34.64,-120.46,60.8,93,7.7,90,US,1603219871
Port Hardy,6111862,50.7,-127.42,50,87,5.82,75,CA,1603219327
Ol'ga,2018553,43.74,135.29,42.98,76,1.57,0,RU,1603219872
Portales,5484874,34.19,-103.33,80.6,31,10.29,1,US,1603219872
Lashio,1314759,22.93,97.75,65.82,99,0.83,99,MM,1603219872
Hobyo,57000,5.35,48.53,80.22,81,17.4,0,SO,1603219637
Ţahţā,347634,26.77,31.5,80.8,22,6.06,0,EG,1603219872
Ishcherskaya,555994,43.72,45.13,57.2,62,4.47,75,RU,1603219872
Parrita,3622537,9.52,-84.32,78.8,61,6.93,40,CR,1603219873
Marzuq,72181,14.4,46.47,70.7,23,1.86,2,YE,1603219873
Macamic,6062563,48.75,-79,37.4,74,6.93,75,CA,1603219873
Rafaela,3839479,-31.25,-61.49,64,85,3,100,AR,1603219796
São Miguel dos Campos,3388269,-9.78,-36.09,82.4,65,11.41,40,BR,1603219873
Bruneck,3181480,46.8,11.94,42.01,75,1.54,5,IT,1603219874
Changji,1529569,44.02,87.32,46.4,45,4.47,0,CN,1603219874
Bima,1648759,-8.47,118.72,77.7,82,3.4,20,ID,1603219874
Birao,240210,10.28,22.79,79.65,47,3.02,0,CF,1603219874
Eidsvåg,3158615,62.78,8.07,41,82,8.05,75,NO,1603219874
Dengzhou,1812988,37.81,120.75,60.58,70,12.19,100,CN,1603219874
Puerto Nariño,3671387,-3.77,-70.38,93.49,45,4.18,20,CO,1603219875
Beringovskiy,2126710,63.05,179.32,40.5,88,12.08,98,RU,1603219386
Padang,1633419,-0.95,100.35,78.71,75,5.06,58,ID,1603219875
Tsiroanomandidy,1054463,-18.77,46.03,75.47,38,2.3,0,MG,1603219875
Mabaruma,3377301,8.2,-59.78,85.66,74,5.55,28,GY,1603219367
Zion,4917358,42.45,-87.83,48,75,10.29,90,US,1603219876
Sibu,1735902,2.3,111.82,75.2,94,4.7,40,MY,1603219876
Los Llanos de Aridane,2514651,28.66,-17.92,77,69,12.75,20,ES,1603219500
Luanda,2240449,-8.84,13.23,77,78,6.93,20,AO,1603219865
Gaza,281133,31.5,34.47,79,100,9.06,0,PS,1603219876
Martinsville,4771808,36.69,-79.87,77,44,3.36,1,US,1603219596
Mahabalipuram,1263997,12.63,80.17,78.8,94,4.7,40,IN,1603219877
Adrar,2381972,20.5,-10.07,90.09,13,7.23,0,MR,1603219877
Ossora,2122389,59.24,163.07,35.38,87,7.83,100,RU,1603219877
Iqaluit,5983720,63.75,-68.51,30.2,80,9.17,90,CA,1603219877
Zhangjiakou Shi Xuanhua Qu,2033574,40.61,115.04,40.17,60,18.52,0,CN,1603219877
Montevideo,3441575,-34.83,-56.17,57.2,50,16.11,75,UY,1603219743
Mount Gambier,2156643,-37.83,140.77,46.4,93,3.18,90,AU,1603219878
São João do Paraíso,3448861,-15.31,-42.01,80.11,49,6.38,99,BR,1603219878
Le Moule,3578967,16.33,-61.35,87.8,66,10.29,20,GP,1603219878
Parnarama,3392996,-5.68,-43.09,100.33,24,4.47,50,BR,1603219878
Sisimiut,3419842,66.94,-53.67,35.8,94,13.65,100,GL,1603219878
Beberibe,3405924,-4.18,-38.13,86,51,19.46,20,BR,1603219878
Chapais,5919850,49.78,-74.85,39.2,60,6.93,90,CA,1603219606
Paamiut,3421193,61.99,-49.67,36.75,86,14.12,100,GL,1603219365
Seymchan,2121373,62.88,152.43,14.92,93,2.3,39,RU,1603219879
Xuanzhou,1788081,30.95,118.76,60.85,81,4.52,100,CN,1603219879
Grindavik,3416888,63.84,-22.43,37.4,74,1.12,75,IS,1603219879
Emerald,2167426,-23.53,148.17,69.8,88,8.05,75,AU,1603219571
Talcahuano,3870282,-36.72,-73.12,62.6,55,20.8,9,CL,1603219586
Derzhavīnsk,1524606,51.1,66.32,52.41,42,10.92,97,KZ,1603219880
Fare,4034496,-16.7,-151.02,79.39,79,17.85,92,PF,1603219880
Beloha,1067565,-25.17,45.05,69.24,74,4.47,0,MG,1603219880
Cabra,2520645,37.47,-4.44,73.99,38,8.01,100,ES,1603219880
Kandalaksha,553190,67.16,32.41,32.41,94,5.55,70,RU,1603219880
Moerai,4034188,-22.43,-151.33,77.04,84,10.2,0,PF,1603219880
Ojuelos de Jalisco,3994216,21.87,-101.58,72.36,29,7.02,0,MX,1603219881
Tabou,2281120,4.42,-7.35,77.72,81,7.29,42,CI,1603219467
Miracema do Tocantins,3384937,-9.56,-48.4,102.13,18,4.47,83,BR,1603219881
Pacho,3673424,5.13,-74.16,69.8,46,10.29,20,CO,1603219881
Hirara,1862505,24.8,125.28,80.26,82,24.9,100,JP,1603219550
Itamarandiba,3460825,-17.86,-42.86,63.21,93,4.16,100,BR,1603219881
Yishui,1786455,35.78,118.63,54.93,73,6.04,100,CN,1603219881
Butea,683166,47.07,26.92,46,87,5.39,0,RO,1603219882
Bergen,3161733,60.39,5.33,46.99,93,21.92,75,NO,1603219664
Brownwood,4676798,31.71,-98.99,84.2,51,14.99,40,US,1603219773
Vojens,2610075,55.25,9.31,48.99,93,9.17,75,DK,1603219882
Santa Cruz de la Sierra,3904906,-17.8,-63.17,95,41,23.04,40,BO,1603219882
Cangzhou,1816080,38.32,116.87,58.98,52,11.86,98,CN,1603219883
Camargo,4013724,27.67,-105.17,86.45,17,4.5,0,MX,1603219883
North Battleford,6089404,52.78,-108.28,24.8,85,10.29,90,CA,1603219768
Prado,3452483,-17.34,-39.22,77.02,83,8.05,100,BR,1603219883
Sambava,1056899,-14.27,50.17,75.63,81,15.52,100,MG,1603219513
Wanning,1791779,18.8,110.4,71.98,87,11.59,56,CN,1603219495
Santa Rosalía,3983805,27.32,-112.28,88.25,34,6.46,0,MX,1603219883
Torit,365742,4.41,32.57,73.49,87,2.8,100,SS,1603219884
Shahreza,417594,32.03,51.88,46.27,39,4.34,0,IR,1603219884
