City Name,City ID,Latitude,Longitude,Max Temp(F),Humidity(%),Wind Speed (m/s),Cloudiness(%),Country Code,Date
Mossamedes,3347019,-15.2,12.15,69.51,77,9.24,23,AO,1603125844
Tasiilaq,3424607,65.61,-37.64,32,97,14.99,40,GL,1603125844
Rikitea,4030556,-23.12,-134.97,73.63,79,14.79,0,PF,1603125845
Bluff,2206939,-46.6,168.33,48.99,73,17,72,NZ,1603125845
Mataura,6201424,-46.19,168.86,48.99,73,17,66,NZ,1603125845
Port Hueneme,5384339,34.15,-119.2,66.2,88,5.82,90,US,1603125587
Avarua,4035715,-21.21,-159.78,73.4,94,3.36,7,CK,1603125845
Kapaa,5848280,22.08,-159.32,75,75,6.98,1,US,1603125593
Ushuaia,3833367,-54.8,-68.3,39.2,86,34.45,75,AR,1603125546
Lüderitz,3355672,-26.65,15.16,64.24,59,25.84,0,NA,1603125846
Tsimmerbude,485660,54.67,20.13,42.8,81,8.95,40,RU,1603125846
Geraldton,2070998,-28.77,114.6,66.2,72,9.17,75,AU,1603125846
Najrān,103630,17.49,44.13,75.2,22,4.7,0,SA,1603125730
Tiarei,4033356,-17.53,-149.33,77,83,14.99,40,PF,1603125846
Norman Wells,6089245,65.28,-126.83,16.57,88,6.2,11,CA,1603125846
Egvekinot,4031742,66.32,-179.17,25.03,92,3.58,98,RU,1603125846
Hermanus,3366880,-34.42,19.23,61,69,4,70,ZA,1603125847
Upernavik,3418910,72.79,-56.15,37.87,74,26.35,68,GL,1603125847
Flinders,6255012,-34.58,150.86,61,79,1.01,100,AU,1603125847
Eureka,5563397,40.8,-124.16,53.6,100,4.7,90,US,1603125768
Hithadhoo,1282256,-0.6,73.08,82.96,76,10.87,100,MV,1603125847
Tiksi,2015306,71.69,128.87,16,93,22.08,100,RU,1603125848
Panzhihua,6929460,26.59,101.71,62.58,75,2.13,100,CN,1603125848
Soyo,2236967,-6.13,12.37,77.9,82,11.01,52,AO,1603125848
Port Elizabeth,964420,-33.92,25.57,64.99,79,4,65,ZA,1603125642
Punta Arenas,3874787,-53.15,-70.92,46.4,49,31.09,40,CL,1603125848
Qaqortoq,3420846,60.72,-46.03,37.4,93,4.7,90,GL,1603125848
Ucluelet,6171633,48.93,-125.55,54,89,1.99,8,CA,1603125563
Dukat,2125906,62.55,155.55,19.51,97,6.53,100,RU,1603125849
Khorixas,3356213,-20.37,14.97,83.97,15,19.55,0,NA,1603125849
Nipawin,6088469,53.37,-104,25.18,89,5.79,0,CA,1603125846
Albany,5106841,42.6,-73.97,60.01,69,6.69,83,US,1603125671
Severo-Kuril'sk,2121385,50.68,156.12,41.4,71,9.51,100,RU,1603125849
Ilulissat,3423146,69.22,-51.1,41,56,16.11,75,GL,1603125849
Gizo Government Station,2108857,-8.1,156.84,81.95,74,2.06,25,SB,1603125850
Ternate,1624041,0.8,127.4,80.98,81,8.68,93,ID,1603125850
Bredasdorp,1015776,-34.53,20.04,62.6,55,17.22,52,ZA,1603125850
Santa Cruz de La Palma,2511180,28.68,-17.76,87.8,45,13.87,20,ES,1603125850
San Patricio,4726521,28.02,-97.52,88,74,14.99,40,US,1603125850
Tura,1254046,25.52,90.22,72.64,92,2.33,0,IN,1603125850
Provideniya,4031574,64.38,-173.3,32.05,87,5.1,16,RU,1603125850
Ketchikan,5554428,55.34,-131.65,42.8,100,6.93,90,US,1603125685
Laguna,5364271,38.42,-121.42,68,72,3.24,1,US,1603125851
La Providencia,3991622,28.72,-111.58,89.01,20,5.82,5,MX,1603125690
Atuona,4020109,-9.8,-139.03,78.17,73,22.62,5,PF,1603125851
Sinjār,448149,36.32,41.88,71.98,22,7.16,0,IQ,1603125851
Yulara,6355222,-25.24,130.99,68,82,13.87,30,AU,1603125851
Butaritari,2110227,3.07,172.79,81.73,74,12.01,100,KI,1603125851
Guerrero Negro,4021858,27.98,-114.06,79.2,56,5.35,0,MX,1603125852
Lebu,3883457,-37.62,-73.65,56.25,60,9.95,2,CL,1603125852
Vila Velha,3445026,-20.33,-40.29,77,83,8.05,90,BR,1603125852
Pleszew,3088848,51.9,17.79,50,83,6.04,73,PL,1603125675
Nova Vodolaha,699777,49.72,35.87,46.4,75,6.71,58,UA,1603125852
Constantine,2501152,36.37,6.61,71.6,28,6.93,0,DZ,1603125852
Port Alfred,964432,-33.59,26.89,66.69,85,12.26,68,ZA,1603125852
Hirara,1862505,24.8,125.28,79.25,83,26.55,55,JP,1603125853
Dikson,1507390,73.51,80.55,23.99,95,19.57,94,RU,1603125853
Erzin,296852,36.96,36.2,78.01,80,4.38,84,TR,1603125853
Umm Kaddadah,364933,13.6,26.69,92.28,15,5.3,31,SD,1603125854
Constitución,3893726,-35.33,-72.42,61.41,48,16.96,0,CL,1603125696
Azul,3436199,-36.78,-59.86,66.99,55,5.99,4,AR,1603125854
Lorengau,2092164,-2.02,147.27,80.47,75,1.57,72,PG,1603125596
Puerto Ayora,3652764,-0.74,-90.35,77,69,9.17,75,EC,1603125854
Chokurdakh,2126123,70.63,147.92,16.3,98,7.09,99,RU,1603125854
Esim,2303611,4.87,-2.24,79.65,80,9.78,83,GH,1603125854
Xiongzhou,1788402,25.12,114.3,58.17,86,2.35,40,CN,1603125855
Cape Town,3369157,-33.93,18.42,64.4,45,13.87,20,ZA,1603125646
Jamestown,5122534,42.1,-79.24,51.01,100,3.36,90,US,1603125855
Lata,2738381,40.16,-8.33,64.99,87,4,100,PT,1603125855
Namatanai,2090021,-3.67,152.43,80.37,73,1.32,36,PG,1603125855
Kloulklubed,7671223,7.04,134.26,77,94,7.07,75,PW,1603125855
Camacupa,3351014,-12.02,17.48,76.5,33,2.98,0,AO,1603125855
Husavik,2629833,66.04,-17.34,39.2,69,4.7,75,IS,1603125856
Zaozyornoye,687726,45.16,33.28,57.25,56,11.95,1,UA,1603125856
Yellowknife,6185377,62.46,-114.35,24.01,96,4,94,CA,1603125856
Kirakira,2178753,-10.45,161.92,79.56,83,7.81,88,SB,1603125856
Chebsara,569681,59.2,38.84,35.6,94,6.71,75,RU,1603125856
Haines Junction,5969025,60.75,-137.51,23.79,79,0.63,100,CA,1603125856
Bandarbeyla,64814,9.49,50.81,79.86,72,3.47,0,SO,1603125857
Fare,4034496,-16.7,-151.02,79.57,79,18.61,22,PF,1603125857
Tecolutla,3516148,20.48,-97.02,83.23,69,3.22,1,MX,1603125857
Grand Gaube,934479,-20.01,57.66,75,69,5.99,9,MU,1603125857
Prenzlau,2852218,53.32,13.87,50,71,6.26,96,DE,1603125857
Lázaro Cárdenas,4026082,17.96,-102.2,86.92,64,1.28,99,MX,1603125857
Saskylakh,2017155,71.92,114.08,20.82,97,5.03,85,RU,1603125858
Ekibastuz,1524325,51.67,75.37,43.79,54,13.18,17,KZ,1603125858
Vaini,4032243,-21.2,-175.2,71.11,79,21.03,21,TO,1603125858
Mahébourg,934322,-20.41,57.7,75.2,73,8.05,40,MU,1603125858
Hobart,2163355,-42.88,147.33,46.4,93,3.36,39,AU,1603125706
Saint Paul Harbor,5866583,57.79,-152.41,30.2,92,3.36,1,US,1603125858
Benalla,2176225,-36.55,145.98,44.6,100,3.09,1,AU,1603125859
Busselton,2075265,-33.65,115.33,59,65,9.86,3,AU,1603125859
Vanimo,2084442,-2.67,141.3,77.95,83,1.77,60,PG,1603125859
Killybegs,2963295,54.63,-8.45,55.4,87,16.11,100,IE,1603125859
Tuktoyaktuk,6170031,69.45,-133.04,21.29,97,5.28,97,CA,1603125859
Peace River,6100069,56.25,-117.29,17.01,90,3.33,96,CA,1603125859
Qaanaaq,3831208,77.48,-69.36,27.7,81,13.09,30,GL,1603125859
Esperance,2071860,-33.87,121.9,57.2,100,5.82,90,AU,1603125754
Hilo,5855927,19.73,-155.09,73.4,78,6.78,90,US,1603125254
Nikolskoye,546105,59.7,30.79,36,95,8.95,90,RU,1603125860
Rocha,3440777,-34.48,-54.33,86.97,54,6.55,40,UY,1603125860
Cap Malheureux,934649,-19.98,57.61,75,69,5.99,6,MU,1603125860
La Ronge,6050066,55.1,-105.28,25.84,88,5.19,35,CA,1603125860
Bilibino,2126682,68.05,166.44,11.16,92,2.64,49,RU,1603125861
Shevchenkove,694137,49.7,37.17,46.4,75,6.71,45,UA,1603125861
Dwārka,1272140,22.24,68.97,85.03,74,7.49,8,IN,1603125861
Along,1278969,28.17,94.77,67.14,88,1.39,45,IN,1603125861
Samarai,2132606,-10.62,150.67,78.98,88,8.79,63,PG,1603125861
La Palma,5364022,33.85,-118.05,70,72,4.7,75,US,1603125848
Novy Urengoy,1496511,66.08,76.63,21.96,97,6.15,4,RU,1603125862
New Norfolk,2155415,-42.78,147.06,42.01,79,2.33,39,AU,1603125862
Pevek,2122090,69.7,170.31,25.36,94,14.03,98,RU,1603125862
Biak,1637001,-0.91,122.88,76.21,68,6.87,33,ID,1603125862
Caravelas,3466980,-17.71,-39.25,79.68,60,7.94,100,BR,1603125862
Xichang,1789647,27.9,102.26,54.63,79,1.01,100,CN,1603125862
Morros,3394372,-9.45,-46.3,99.16,20,9.08,14,BR,1603125862
Bang Saphan,1157662,11.21,99.51,75.97,92,3.15,54,TH,1603125863
Tigil',2120612,57.8,158.67,34.54,89,12.06,89,RU,1603125863
Sulangan,1685422,11.14,123.72,80.55,82,3.33,100,PH,1603125863
Barrow,5880054,71.29,-156.79,21.2,85,9.17,90,US,1603125604
Pyn U Lwin,1309937,22.03,96.47,65.93,82,7.85,92,MM,1603125863
Saint-Philippe,935215,-21.36,55.77,75.2,73,19.46,32,RE,1603125863
Praia da Vitória,3372760,38.73,-27.07,60.8,82,24.49,75,PT,1603125864
Magadan,2123628,59.57,150.8,31.28,98,5.79,100,RU,1603125864
Stornoway,2636790,58.21,-6.39,50,93,6.93,75,GB,1603125864
Los Llanos de Aridane,2514651,28.66,-17.92,87.8,45,13.87,20,ES,1603125864
Salalah,286621,17.02,54.09,86,48,4.7,40,OM,1603125865
Saint-François,2980080,46.42,3.91,57.2,67,4.7,100,FR,1603125865
Bethel,5282297,41.37,-73.41,61,72,5.91,90,US,1603125865
Sitka,5557293,57.05,-135.33,42.8,81,13.87,75,US,1603125865
Padang,1633419,-0.95,100.35,78.75,72,3.58,33,ID,1603125865
Chicama,3698359,-7.84,-79.15,64.4,82,12.75,20,PE,1603125865
Cidreira,3466165,-30.18,-50.21,73.2,71,13.62,0,BR,1603125866
Margate,2643044,51.38,1.39,55.99,66,5.99,100,GB,1603125707
Nicoya,3622716,10.15,-85.45,86,74,6.93,40,CR,1603125866
Thinadhoo,1337610,0.53,72.93,82.89,77,11.36,100,MV,1603125866
Leh,1264976,34.17,77.58,38.84,46,7.14,0,IN,1603125866
Fort Nelson,5955902,58.81,-122.7,21.78,82,1.43,29,CA,1603125595
Cabo San Lucas,3985710,22.89,-109.91,87.01,62,3.36,5,MX,1603125776
Misratah,2214846,32.38,15.09,71.83,58,12.12,56,LY,1603125867
Gōtsuchō,1863521,35,132.22,56.05,65,5.46,36,JP,1603125867
Lyubashivka,702898,47.84,30.26,46.26,71,6.67,22,UA,1603125867
Ciudad Gustavo Díaz Ordaz,3483393,26.23,-98.58,87.01,73,1.99,0,MX,1603125867
Bambous Virieux,1106677,-20.34,57.76,75.2,73,8.05,40,MU,1603125868
Lompoc,5367788,34.64,-120.46,53.6,100,6.6,90,US,1603125868
Dunedin,2191562,-45.87,170.5,46,82,1.99,25,NZ,1603125868
Hobyo,57000,5.35,48.53,80.17,80,18.45,1,SO,1603125868
Bengkulu,1649150,-3.8,102.27,76.55,88,3.56,94,ID,1603125868
Hammerfest,779683,70.66,23.68,33.8,88,8.05,75,NO,1603125868
Zhoucheng,1920772,35.91,116.31,55.17,43,5.01,0,CN,1603125869
Codrington,2171099,-38.27,141.97,42.64,88,3.44,6,AU,1603125869
Port Macquarie,2152659,-31.43,152.92,59,99,1.99,82,AU,1603125869
Poplar Bluff,4404233,36.76,-90.39,50,87,5.82,90,US,1603125869
Olean,5129780,42.08,-78.43,48.99,100,4.7,90,US,1603125869
Matara,1235846,5.95,80.54,78.98,85,10.02,100,LK,1603125870
Biloela,2175819,-24.42,150.5,63.52,56,6.53,1,AU,1603125870
Avera,4231997,33.19,-82.53,73.4,56,6.93,1,US,1603125870
Port Lincoln,2063036,-34.73,135.87,55.4,83,13.65,42,AU,1603125870
Anadyr,2127202,64.75,177.48,33.8,74,8.95,39,RU,1603125870
Fort Saint James,5881688,54.43,-124.25,29.86,95,2.3,58,CA,1603125871
Yerbogachën,2012956,61.28,108.01,26.06,97,10.54,100,RU,1603125871
Adrar,2381972,20.5,-10.07,92.89,13,14.97,0,MR,1603125871
Cherskiy,2126199,68.75,161.3,17.65,95,4.76,55,RU,1603125871
Olafsvik,3414079,64.89,-23.71,40.75,70,10.13,80,IS,1603125871
Salinópolis,3389822,-0.61,-47.36,85.75,63,12.57,80,BR,1603125871
Mackay,2159220,-21.15,149.2,68,88,3.36,75,AU,1603125872
Ambunti,2100933,-4.24,142.84,73.04,92,1.1,100,PG,1603125872
Kiryat Gat,293842,31.61,34.76,81,69,8.05,0,IL,1603125872
Oleksandrivka,713676,46.84,32.76,51.8,62,6.71,35,UA,1603125872
Nantucket,4944903,41.28,-70.1,60.8,67,8.05,1,US,1603125769
Soloneshnoye,1491461,51.65,84.32,34.3,80,3.78,96,RU,1603125872
Taksimo,2015701,56.34,114.88,30.31,95,4.76,100,RU,1603125816
Castro,3466704,-24.79,-50.01,73.56,72,5.19,19,BR,1603125873
Mareeba,2158767,-17,145.43,69.8,94,1.23,33,AU,1603125873
Kamaishi,2112444,39.27,141.88,54.46,72,5.53,30,JP,1603125739
Bathsheba,3374083,13.22,-59.52,87.8,70,9.17,20,BB,1603125873
Aklavik,5882953,68.22,-135.01,15.22,88,5.55,94,CA,1603125723
West Wendover,5710035,40.74,-114.07,57.2,41,3.71,1,US,1603125874
Faya,110690,18.39,42.45,69.8,15,9.17,20,SA,1603125874
Mar del Plata,3430863,-38,-57.56,62.6,55,13.87,75,AR,1603125800
Tazovsky,1489853,67.47,78.7,17.71,96,8.37,54,RU,1603125874
Inhambane,1045114,-23.86,35.38,71.6,77,10.96,0,MZ,1603125875
Marawi,1701054,8,124.29,75.99,90,5.01,100,PH,1603125875
Hushitai,2036619,41.93,123.51,50,71,4.47,0,CN,1603125875
Prince Rupert,6113406,54.32,-130.32,45.14,84,4.83,95,CA,1603125684
Balad,98112,34.02,44.15,77.43,18,7.94,0,IQ,1603125875
Thompson,6165406,55.74,-97.86,26.76,91,6.98,64,CA,1603125728
Chara,2025630,56.91,118.26,29.61,96,2.24,100,RU,1603125875
Touros,3386213,-5.2,-35.46,86,58,18.34,40,BR,1603125876
Batagay-Alyta,2027042,67.8,130.41,14.81,88,2.68,100,RU,1603125876
Khatanga,2022572,71.97,102.5,9.48,95,4.88,38,RU,1603125876
Bicholim,1260607,15.59,73.95,80.6,88,5.82,40,IN,1603125876
Hermosillo,4004898,29.07,-110.97,90,20,5.82,5,MX,1603125857
Mahibadhoo,1337605,3.78,72.97,82.8,77,12.46,90,MV,1603125876
Berlevåg,780687,70.86,29.09,37.4,77,12.75,75,NO,1603125877
Lanzhou,1804430,36.06,103.79,32,41,4.47,67,CN,1603125877
Vao,2137773,-22.67,167.48,72.28,79,16.49,18,NC,1603125877
Bubaque,2374583,11.28,-15.83,83.97,80,7.87,43,GW,1603125877
Buala,2109528,-8.14,159.59,80.56,79,5.46,2,SB,1603125877
Temir,608036,49.14,57.13,55.63,36,9.4,0,KZ,1603125877
Flin Flon,5954718,54.77,-101.86,27.46,88,5.23,0,CA,1603125878
Nanortalik,3421765,60.14,-45.24,39.06,87,9.62,81,GL,1603125878
Port-Gentil,2396518,-0.72,8.78,82.4,78,18.34,40,GA,1603125878
Vaitape,4033077,-16.52,-151.75,80.64,78,15.32,0,PF,1603125878
Tiznit Province,2527087,29.58,-9.5,79.47,24,2.06,0,MA,1603125878
Longyearbyen,2729907,78.22,15.64,26.6,79,6.93,75,SJ,1603125824
Payao,1694209,10.18,122.95,78.03,82,2.48,100,PH,1603125878
Klaksvík,2618795,62.23,-6.59,42.8,75,13.87,69,FO,1603125879
Port Hardy,6111862,50.7,-127.42,51.53,82,10.29,77,CA,1603125727
Elliot Lake,5947866,46.38,-82.63,40.93,71,2.71,77,CA,1603125879
George Town,1735106,5.41,100.34,82.4,83,4.7,20,MY,1603125879
Jacqueville,2287778,5.21,-4.41,82.4,78,11.41,75,CI,1603125879
Airai,1651810,-8.93,125.41,61.02,72,1.72,35,TL,1603125879
Waingapu,1622318,-9.66,120.26,80.4,77,5.68,54,ID,1603125880
Richards Bay,962367,-28.78,32.04,73.99,81,9.6,0,ZA,1603125752
Almaznyy,582447,48.04,40.05,53.6,81,6.71,40,RU,1603125880
Torbay,6167817,47.67,-52.73,57.99,79,1.01,95,CA,1603125880
Nouakchott,2377450,18.09,-15.98,105.8,12,14.99,10,MR,1603125765
Nuuk,3421319,64.18,-51.72,42.8,74,31.09,75,GL,1603125690
Saint George,5546220,37.1,-113.58,59,22,1.07,1,US,1603125664
Zelenets,463880,61.88,50.75,33.8,100,6.71,90,RU,1603125881
Esso,2125711,55.93,158.7,25.47,88,3.4,96,RU,1603125881
Cabangahan,1721886,9.08,122.95,80.6,78,3.53,100,PH,1603125881
Tessalit,2449893,20.2,1.01,95.16,10,8.84,0,ML,1603125881
Simao,1794209,22.79,100.97,60.69,96,1.72,100,CN,1603125882
Pisco,3932145,-13.7,-76.22,69.8,68,9.17,0,PE,1603125882
Sovetskiy,1491230,61.36,63.58,34.75,98,3.36,97,RU,1603125882
Souillac,933995,-20.52,57.52,75.2,73,8.05,40,MU,1603125882
Bethanien,3358416,-26.5,17.16,80.92,16,16.15,0,NA,1603125882
Coquimbo,3893629,-29.95,-71.34,60.8,67,14.99,0,CL,1603125882
Kavaratti,1267390,10.57,72.64,81.21,73,10.29,81,IN,1603125883
Kiunga,2093846,-6.12,141.29,73.87,98,1.79,100,PG,1603125883
Ossora,2122389,59.24,163.07,36.55,89,4.47,100,RU,1603125883
Nago,1856068,26.59,127.98,77,88,13.87,40,JP,1603125884
Gao,2457161,16.64,1.64,99.55,10,7.99,0,ML,1603125884
Kérouané,2419622,9.27,-9.02,81.7,77,3.51,73,GN,1603125884
Nishihara,1855342,26.18,127.76,78.8,83,16.11,20,JP,1603125884
Quatre Cocos,1106643,-20.21,57.76,75.2,73,8.05,40,MU,1603125884
Barinas,3648546,8.62,-70.21,86.58,63,2.91,96,VE,1603125884
Kirensk,2022083,57.79,108.11,25.75,95,7.27,78,RU,1603125884
Tonantins,3661894,-2.87,-67.8,93.65,47,2.55,99,BR,1603125885
Dryden,5942913,49.78,-92.75,32.67,82,6.76,46,CA,1603125885
Ejido,3644417,8.55,-71.24,81.91,38,6.33,100,VE,1603125885
Ust-Tsilma,477940,65.44,52.15,28.67,96,6.31,98,RU,1603125885
Parfino,512570,57.97,31.65,35.17,94,11.3,100,RU,1603125886
Kaitangata,2208248,-46.28,169.85,46,82,1.99,58,NZ,1603125886
Waipawa,2206874,-41.41,175.52,55.4,87,18.34,57,NZ,1603125886
Coyhaique,3894426,-45.58,-72.07,48.2,45,4.7,75,CL,1603125886
Necochea,3430443,-38.55,-58.74,60.01,69,11.01,28,AR,1603125628
Lima,3936456,-12.04,-77.03,68,72,5.82,90,PE,1603125758
Conakry,2422465,9.54,-13.68,86,84,11.41,75,GN,1603125789
Huaraz,3696378,-9.53,-77.53,65.8,31,6.24,68,PE,1603125887
Rio Grande,3451138,-32.03,-52.1,74.48,69,9.86,1,BR,1603125795
Clyde River,5924351,70.47,-68.59,32.85,94,14.41,100,CA,1603125887
Seara,2734239,41.18,-7.8,64.99,7,7.87,100,PT,1603125887
Carupano,3646382,10.67,-63.26,87.22,65,9.66,52,VE,1603125888
Adelaide,2078025,-34.93,138.6,54,81,4.5,0,AU,1603125593
Yangi Marg`ilon,1513491,40.43,71.72,57.2,54,6.93,0,UZ,1603125888
Lugovoy,1521293,42.95,72.76,53.11,37,4.34,0,KZ,1603125888
Katsuura,2112309,35.13,140.3,57.2,87,6.93,75,JP,1603125888
Itoman,1861280,26.12,127.67,78.8,83,16.11,20,JP,1603125888
Abbeyleix,2967092,52.9,-7.36,53.01,95,11.99,100,IE,1603125889
Kāzerūn,128321,29.62,51.65,61,32,2.28,0,IR,1603125889
East London,1006984,-33.02,27.91,68,77,11.41,20,ZA,1603125889
Forestville,4355274,38.85,-76.88,71.01,64,6.93,75,US,1603125682
St. George's,3579925,12.06,-61.75,87.8,70,17.22,20,GD,1603125889
Donskoye,565289,45.46,41.97,57.2,100,6.71,40,RU,1603125889
Sakakah,102527,29.97,40.21,84.2,8,3.36,0,SA,1603125747
Andros Town,3572906,24.7,-77.77,78.8,83,6.93,75,BS,1603125890
Lososina,2123688,49,140.31,33.46,86,7.54,32,RU,1603125890
Asău,686090,46.43,26.4,50,61,11.41,2,RO,1603125890
Broken Hill,2173911,-31.95,141.43,53.6,54,6.93,99,AU,1603125890
Fairview,5097801,40.81,-74,64.99,72,3.36,75,US,1603125890
Hong Kong,1819729,22.29,114.16,75.99,72,1.01,34,HK,1603125865
Deputatsky,2028164,69.3,139.9,8.01,95,5.53,94,RU,1603125890
Port Alberni,6111632,49.24,-124.8,52,80,3.24,92,CA,1603125891
Ol'khovatka,515539,50.28,39.29,46.72,63,6.38,82,RU,1603125892
North Fort Myers,4166195,26.67,-81.88,75.2,100,11.41,75,US,1603125892
Agogo,2305537,6.8,-1.08,77.67,92,3.02,55,GH,1603125892
Saint-Pierre,935214,-21.34,55.48,75.2,73,19.46,4,RE,1603125892
Melilla,2513947,35.29,-2.94,69.8,77,6.93,40,ES,1603125893
Port Moresby,2088122,-9.44,147.18,77,88,4.7,20,PG,1603125893
Mookane,933290,-23.69,26.66,91.74,15,7.36,13,BW,1603125893
Yeppoon,2142316,-23.13,150.73,68,82,3.47,0,AU,1603125893
Cedar City,5536630,37.68,-113.06,55.4,26,5.46,1,US,1603125869
Chui,3443061,-33.7,-53.46,80.96,54,6.4,92,UY,1603125893
Carnarvon,2074865,-24.87,113.63,69.8,77,16.11,90,AU,1603125893
Labuhan,8079926,-6.88,112.21,77.63,83,5.88,100,ID,1603125894
Fortuna,5563839,40.6,-124.16,53.6,100,8.05,90,US,1603125784
Xam Nua,1652203,20.42,104.04,57.24,95,2.17,100,LA,1603125894
Prainha,3391287,-1.8,-53.48,97.25,33,7.81,38,BR,1603125894
Jiuquan,1279945,39.74,98.52,49.8,41,12.82,74,CN,1603125894
Kikwit,2314705,-5.04,18.82,75.51,88,0.83,76,CD,1603125895
Jalu,86049,29.03,21.55,82.99,25,6.44,78,LY,1603125895
Tshikapa,204953,-6.42,20.8,78.37,78,3.2,37,CD,1603125895
Abu Kamal,174448,34.45,40.92,76.71,19,7.36,0,SY,1603125895
Andra,1511646,62.51,65.89,32.38,97,4.45,100,RU,1603125895
Mehamn,778707,71.04,27.85,37.4,86,12.75,75,NO,1603125895
Safi,2537881,32.3,-9.24,67.86,72,7.7,80,MA,1603125896
Muros,3115824,42.78,-9.06,60.01,93,18.01,99,ES,1603125896
Sistranda,3139597,63.73,8.83,37.4,86,8.05,40,NO,1603125896
Santo Tomas,1687534,14.11,121.14,82.4,78,3.36,75,PH,1603125896
Portland,5746545,45.52,-122.68,57.99,87,4.7,75,US,1603125677
Ashland,5146062,40.82,-82.27,50,100,8.05,90,US,1603125896
Taoudenni,2450173,22.68,-3.98,95.45,10,11.9,0,ML,1603125897
Isangel,2136825,-19.55,169.27,72.99,78,11.23,56,VU,1603125897
Sorong,1626542,-0.88,131.25,79.77,84,6.87,100,ID,1603125881
Tokur,2015217,53.13,132.9,9.82,94,3.18,0,RU,1603125898
Great Yarmouth,2647984,52.61,1.73,55,86,14,84,GB,1603125899
Lusambo,210379,-4.97,23.45,74.89,79,1.48,99,CD,1603125899
Nouadhibou,2377457,20.93,-17.03,91.4,33,10.29,0,MR,1603125900
Ahipara,2194098,-35.17,173.17,56.57,90,7.52,80,NZ,1603125900
Lavrentiya,4031637,65.58,-171,31.71,89,2.42,0,RU,1603125900
Acatlán,3533445,20.15,-98.45,67.14,52,7.14,7,MX,1603125900
San Luis Río Colorado,3985604,32.46,-114.78,90,36,8.05,20,MX,1603125901
Tual,1623197,-5.67,132.75,80.38,82,11.41,29,ID,1603125901
Atar,2381334,20.52,-13.05,96.17,17,15.26,0,MR,1603125901
Arraial do Cabo,3471451,-22.97,-42.03,80.6,61,18.34,40,BR,1603125903
Malé,1282027,4.17,73.51,84.2,74,14.99,75,MV,1603125903
Dali,1814093,25.7,100.18,58.84,88,4.05,97,CN,1603125903
Celestún,3531368,20.87,-90.4,84.97,70,12.5,3,MX,1603125904
Rognan,3141548,67.1,15.39,34,85,6.51,99,NO,1603125904
Mahina,4034307,-17.51,-149.49,78.8,74,14.99,40,PF,1603125904
Ponta do Sol,2264557,32.67,-17.1,73.4,69,8.05,20,PT,1603125904
Kisangani,212730,0.52,25.2,84.2,62,3.36,20,CD,1603125905
Sivas Province,300617,39.79,37,50,87,13.87,75,TR,1603125905
Vila Franca do Campo,3372472,37.72,-25.43,64.4,68,20.8,20,PT,1603125905
Khovd,1516048,48.01,91.64,26.24,77,2.93,0,MN,1603125905
Burgeo,5911440,47.62,-57.62,53.4,93,10.11,100,CA,1603125905
Huarmey,3939168,-10.07,-78.15,70.29,63,10.89,9,PE,1603125905
Matagami,6067747,49.75,-77.63,38.12,74,7.18,96,CA,1603125906
Amga,2027786,60.9,131.96,7.81,93,1.83,1,RU,1603125906
Zhigalovo,2012532,54.81,105.16,27.68,93,6.8,100,RU,1603125906
Tehuacán,3516109,18.45,-97.38,75,51,7,17,MX,1603125906
Karratha,6620339,-20.74,116.85,68.58,80,13.09,0,AU,1603125907
Makokou,2399371,0.57,12.86,73.96,93,1.32,57,GA,1603125907
Muzaffarabad,1169607,34.37,73.47,64.69,28,4.21,0,PK,1603125849
Peniche,2264923,39.36,-9.38,66.99,89,21.99,100,PT,1603125907
Marystown,6067472,47.17,-55.15,60.01,100,7,94,CA,1603125907
Wexford,2960964,52.33,-6.46,54,93,18.34,75,IE,1603125907
Krasnosel'kup,1502073,65.7,82.47,18.95,97,6.02,83,RU,1603125908
Nikolayevka,521966,53.13,47.2,41.85,66,4.38,37,RU,1603125908
Eenhana,3357804,-17.47,16.33,102.2,5,2.24,0,NA,1603125908
Arlit,2447513,18.74,7.39,99.57,9,8.39,0,NE,1603125908
Kumul,1529484,42.8,93.45,55.27,36,27.58,0,CN,1603125909
Bwanga,160833,-3.03,31.76,70.29,78,3.11,77,TZ,1603125909
Eydhafushi,1337606,5.1,73.07,82.29,77,12.06,98,MV,1603125909
Kavieng,2094342,-2.57,150.8,82.06,71,3.18,22,PG,1603125909
Dongsheng,1812256,39.82,109.98,45.84,50,12.88,100,CN,1603125909
Sassandra,2281951,4.95,-6.08,79.7,78,9.15,41,CI,1603125909
Ust'-Ishim,1488206,57.69,71.17,41.56,82,8.08,98,RU,1603125910
Mount Darwin,885800,-16.77,31.58,80.33,19,4.83,0,ZW,1603125910
Bonavista,5905393,48.65,-53.11,53.01,77,1.99,100,CA,1603125910
Garoowe,58933,8.41,48.48,85.37,44,5.97,25,SO,1603125910
Oranjemund,3354071,-28.55,16.43,59.7,80,14.81,0,NA,1603125910
Buin,3897774,-33.73,-70.75,71.6,33,6.93,85,CL,1603125911
Ukiah,5404476,39.15,-123.21,72,66,2.13,1,US,1603125699
San Alberto,3670242,7.76,-73.39,81.14,76,4.21,100,CO,1603125911
Xiongyue,2033630,40.18,122.12,56.48,77,9.6,0,CN,1603125911
Øksfjord,778362,70.24,22.35,33.8,92,4.7,40,NO,1603125911
Lumphat,1830377,13.49,106.98,73.56,97,0.74,96,KH,1603125911
Ochamchira,612652,42.71,41.47,66.27,84,1.19,84,GE,1603125912
Paita,3694112,-5.09,-81.11,78.8,65,21.92,13,PE,1603125912
Phuket,1151253,8,98.25,86,94,1.12,20,TH,1603125912
Umluj,100926,25.02,37.27,84.04,54,9.35,0,SA,1603125912
Talakan,2015686,50.32,130.37,28.87,89,3.4,0,RU,1603125913
Morondava,1058381,-20.28,44.28,79.21,82,15.05,44,MG,1603125913
Iquique,3887127,-20.22,-70.14,66.2,63,13.87,90,CL,1603125869
Burns Lake,5911745,54.23,-125.75,31.21,95,2.15,82,CA,1603125913
Lerwick,2644605,60.15,-1.15,46.4,87,32.21,75,GB,1603125913
Meulaboh,1214488,4.14,96.13,78.57,83,2.55,95,ID,1603125913
Rawson,3839307,-43.3,-65.1,60.12,30,24.18,0,AR,1603125914
Sibolga,1213855,1.74,98.78,77.79,80,3.4,90,ID,1603125914
Kamsack,5989068,51.57,-101.9,26.08,85,5.37,4,CA,1603125786
Abnūb,362973,27.27,31.15,95,23,10.29,0,EG,1603125643
Leningradskiy,2123814,69.38,178.42,27.55,91,6.62,100,RU,1603125914
Fort Dodge,4857486,42.5,-94.17,32,65,8.05,90,US,1603125914
Encruzilhada do Sul,3464255,-30.54,-52.52,84.4,43,3.2,0,BR,1603125914
Mount Gambier,2156643,-37.83,140.77,39.2,93,2.15,40,AU,1603125915
Piaçabuçu,3454005,-10.41,-36.43,82.04,58,12.91,62,BR,1603125915
Stjørdalshalsen,3136765,63.47,10.93,37.4,86,10.29,40,NO,1603125915
Genhe,2037252,50.78,121.52,32.99,93,2.84,90,CN,1603125915
Rancho Palos Verdes,5386035,33.74,-118.39,70,93,3.36,90,US,1603125711
Gambēla,337405,8.25,34.58,75.58,77,2.21,12,ET,1603125916
Rundu,3353383,-17.93,19.77,84.87,13,4.36,0,NA,1603125916
Boende,218680,-0.22,20.87,75.45,87,1.43,58,CD,1603125916
Puerto Ayacucho,3629710,5.66,-67.62,89.33,60,3.42,96,VE,1603125916
Port Augusta,2063056,-32.5,137.77,54,81,5.82,73,AU,1603125916
Sisimiut,3419842,66.94,-53.67,38.12,82,34.29,100,GL,1603125917
Dourados,3464460,-22.22,-54.81,91.9,37,6.58,20,BR,1603125664
Havre-St-Pierre,5972291,50.23,-63.6,45.84,74,8.97,33,CA,1603125917
Nueva Loja,3655185,0.08,-76.88,87.8,62,3.36,40,EC,1603125917
Kaduqli,373141,11.02,29.72,80.51,60,3.71,70,SD,1603125917
Santa Rosa,1687894,14.31,121.11,82.4,78,3.36,75,PH,1603125918
Bernal,3699350,-5.45,-80.75,82.67,42,10.96,10,PE,1603125918
Ballia,1277238,25.76,84.15,77.76,61,2.55,14,IN,1603125918
Morden,6078447,49.19,-98.1,30.2,46,8.05,75,CA,1603125919
Port Blair,1259385,11.67,92.75,80.89,84,12.59,97,IN,1603125919
Marabá,3395503,-5.37,-49.12,91.4,55,5.82,40,BR,1603125919
Warmbad,3352263,-28.45,18.73,76.98,20,20.18,0,NA,1603125919
Olinda,3393536,-8.01,-34.86,84.2,62,10.29,75,BR,1603125919
Blagoyevo,576093,63.37,47.92,32.38,98,5.3,100,RU,1603125920
Margherita,1263532,27.28,95.68,71.53,93,1.68,63,IN,1603125920
Tūkrah,88834,32.53,20.58,71.15,74,9.28,49,LY,1603125920
Mosetse,933277,-20.75,26.65,87.94,13,9.55,3,BW,1603125920
Ulaangom,1515029,49.98,92.07,27.54,76,6.29,23,MN,1603125920
Benguela,3351663,-12.58,13.41,75.99,75,7,8,AO,1603125921
Khartoum,379252,15.55,32.53,96.8,19,3.36,0,SD,1603125921
Tuatapere,2180815,-46.13,167.68,48.99,73,17,72,NZ,1603125921
Balabac,1728675,7.99,117.06,79.3,87,13.69,100,PH,1603125921
Alice Springs,2077895,-23.7,133.88,68,72,6.93,28,AU,1603125921
Antalaha,1071296,-14.9,50.28,75.31,75,12.5,44,MG,1603125923
Srednekolymsk,2121025,67.45,153.68,16.72,96,3.65,84,RU,1603125923
Sunrise Manor,5513343,36.21,-115.07,73.4,19,2.13,1,US,1603125891
Makakilo City,5850554,21.35,-158.09,75.2,88,8.68,75,US,1603125838
Sretensk,2016110,52.25,117.71,36.93,80,3.15,97,RU,1603125923
Gorontalo,1643837,0.54,123.06,75.25,79,1.66,77,ID,1603125924
Kahului,5847411,20.89,-156.47,73,73,5.82,1,US,1603125924
Saryozek,1519580,44.36,77.98,48.06,46,6.38,27,KZ,1603125924
Ballinasloe,2966753,53.33,-8.22,53.01,93,3,100,IE,1603125924
Singaparna,1626936,-7.35,108.11,71.62,90,0.58,100,ID,1603125924
Hasaki,2112802,35.73,140.83,54,100,6.93,75,JP,1603125924
Vanavara,2013727,60.34,102.28,24.84,95,13.38,100,RU,1603125925
Leninsk,536156,48.71,45.2,53.6,58,6.71,40,RU,1603125925
Gimli,5961417,50.63,-96.99,33.01,98,8.01,1,CA,1603125925
Kang,933692,-23.68,22.79,89.31,12,0.58,7,BW,1603125925
Beyneu,610298,45.32,55.2,60.31,27,14.05,0,KZ,1603125926
Adré,245669,13.47,22.2,81.07,26,1.16,4,TD,1603125926
Ulladulla,2145554,-35.35,150.47,57.2,82,4.7,90,AU,1603125926
Ashtian,113636,34.52,50,44.65,47,2.73,0,IR,1603125926
Penzance,2640377,50.12,-5.54,55.4,82,21.92,100,GB,1603125927
Taltal,3870243,-25.4,-70.48,63.81,56,4.9,22,CL,1603125927
Kachīry,1523662,53.07,76.1,42.89,55,14.23,100,KZ,1603125927
Douglas,5067114,41.3,-96.17,39.2,69,6.93,90,US,1603125927
Evensk,2125693,61.95,159.23,36.72,93,14.47,100,RU,1603125927
Beira,1052373,-19.84,34.84,74.26,79,12.06,0,MZ,1603125848
Thunder Bay,6166142,48.4,-89.32,35.01,75,6.31,4,CA,1603125928
Aracati,3407378,-4.56,-37.77,88.63,48,16.71,76,BR,1603125928
Miandrivazo,1059051,-19.52,45.47,83.62,55,4.94,25,MG,1603125928
Kjøpsvik,3150002,68.1,16.37,36,83,14.99,2,NO,1603125928
Beringovskiy,2126710,63.05,179.32,36.52,82,11.3,11,RU,1603125928
Bilokurakyne,712569,49.53,38.73,49.06,58,6.13,83,UA,1603125929
Trat,1605277,12.5,102.5,74.41,92,3.24,90,TH,1603125929
Yate,2633406,51.54,-2.42,55.99,73,5.99,100,GB,1603125929
Waterloo,6176823,43.47,-80.52,45,69,1.99,100,CA,1603125792
Vestmannaeyjar,3412093,63.44,-20.27,42.8,75,10.29,75,IS,1603125929
Nirasaki,1855363,35.7,138.45,51.01,98,1.77,69,JP,1603125929
Gornopravdinsk,1506268,60.05,69.9,38.14,98,5.66,100,RU,1603125930
Acarí,3948613,-15.43,-74.62,78.03,38,10.54,26,PE,1603125930
Wau,363885,7.7,28,75.42,77,2.86,17,SS,1603125930
Imbituba,3461370,-28.24,-48.67,80.6,61,18.34,40,BR,1603125930
Hervey Bay,2146219,-25.3,152.85,71.01,88,5.82,75,AU,1603125930
Stepnogorsk,1537939,52.35,71.89,45.36,56,16.15,56,KZ,1603125931
Manggar,1636426,-2.88,108.27,80.37,81,6.46,100,ID,1603125931
São Lourenço do Sul,3448596,-31.37,-51.98,79.72,57,7.23,0,BR,1603125931
Redlands,5386754,34.06,-117.18,69.01,48,2.17,5,US,1603125931
Algiers,2507480,36.75,3.04,75.2,47,9.17,0,DZ,1603125788
Moose Factory,6078372,51.26,-80.61,38.05,76,7.54,14,CA,1603125931
Lagunas,3695844,-5.23,-75.68,98.29,37,2.84,9,PE,1603125932
Ribeira Grande,3372707,38.52,-28.7,66.2,63,17.22,40,PT,1603125932
Marigot,3578851,18.07,-63.08,86,66,6.93,20,MF,1603125932
Iturama,3460513,-19.73,-50.2,87.01,43,7.4,98,BR,1603125932
Yar-Sale,1486321,66.83,70.83,18.18,96,3.62,0,RU,1603125932
Farafangana,1065158,-22.82,47.83,72.84,81,10.38,31,MG,1603125932
Sobolevo,525426,54.43,31.9,38.77,76,14.07,26,RU,1603125933
Klyuchi,1503153,52.27,79.17,39.43,64,17.02,100,RU,1603125933
Aripuanã,3665202,-9.17,-60.63,84.11,63,4.05,100,BR,1603125933
Coahuayana Viejo,4013679,18.73,-103.68,78.8,74,6.93,40,MX,1603125933
Pangnirtung,6096551,66.15,-65.71,30.29,94,12.86,100,CA,1603125933
Zhangye,1785036,38.93,100.45,46.26,44,4.56,96,CN,1603125933
Cabedelo,3404558,-6.98,-34.83,86,55,11.41,75,BR,1603125934
Kruisfontein,986717,-34,24.73,64,79,4,63,ZA,1603125934
Kieta,2094027,-6.22,155.63,78.48,77,3,35,PG,1603125934
Russell,4047434,32.35,-85.2,75.99,60,3.36,1,US,1603125927
Nome,5870133,64.5,-165.41,39.2,93,5.82,90,US,1603125934
Malpe,1264037,13.35,74.72,78.8,83,3.36,40,IN,1603125934
Porto-Novo,2392087,6.5,2.6,84.2,79,14.99,40,BJ,1603125935
Shahr-e Bābak,115781,30.12,55.12,51.44,29,8.32,0,IR,1603125935
Timmins,6166739,48.47,-81.33,40.3,68,8.79,96,CA,1603125935
Sambava,1056899,-14.27,50.17,76.62,75,16.84,40,MG,1603125935
Lagoa,3372964,39.05,-27.98,64.17,73,35.46,99,PT,1603125936
Province of Mantua,3174050,45.17,10.78,57.99,88,0.76,82,IT,1603125936
Zhezkazgan,1516589,47.8,67.71,52.25,45,8.08,22,KZ,1603125936
Havelock,4470244,34.88,-76.9,78.01,64,10.29,40,US,1603125859
Ancud,3899695,-41.87,-73.82,53.6,54,9.17,40,CL,1603125936
Hérouville-Saint-Clair,3013403,49.21,-0.31,55.4,62,17.22,97,FR,1603125937
Ixtapa,4004293,20.7,-105.2,88,70,3.36,40,MX,1603125937
Nhulunbuy,2064735,-12.23,136.77,73.4,88,4.81,11,AU,1603125937
Taywarah,1122464,33.35,64.42,29.14,83,1.61,0,AF,1603125937
Laredo,4705349,27.51,-99.51,84.2,66,13.87,40,US,1603125938
Shingū,1847947,33.73,135.98,52.61,77,7.23,82,JP,1603125938
Faanui,4034551,-16.48,-151.75,79.79,79,15.21,0,PF,1603125938
Hauterive,3013748,46.09,3.45,62.6,55,3.36,100,FR,1603125938
Henties Bay,3356832,-22.12,14.28,62.01,84,7,0,NA,1603125938
Ituiutaba,3460523,-18.97,-49.47,85.69,44,13.22,99,BR,1603125939
Glendive,5654391,47.11,-104.71,25,92,8.05,90,US,1603125767
Karaman Province,443187,37.08,33.25,61.66,50,7.49,87,TR,1603125939
Bentiu,377472,9.23,29.83,79.2,65,3.6,5,SS,1603125939
Aranos,3358666,-24.13,19.12,84.18,13,7.87,0,NA,1603125939
Goundi,2431736,9.36,17.37,80.6,51,1.5,2,TD,1603125939
Slagelse,2613460,55.4,11.35,52,81,1.12,72,DK,1603125940
Veshenskaya,473998,49.63,41.73,50.94,47,4.45,96,RU,1603125940
San-Pédro,2282006,4.75,-6.64,79.59,78,9.04,32,CI,1603125940
Wanxian,1791748,30.8,108.39,63.57,78,0.76,100,CN,1603125940
Tyrma,2014694,50.08,132.17,25.29,91,0.18,0,RU,1603125941
Lagos,2332453,6.58,3.75,80.17,82,6.49,67,NG,1603125741
Curup,1645875,-3.47,102.53,69.35,92,2.37,97,ID,1603125941
Vanderhoof,6173361,54.02,-124.02,31.3,96,2.82,95,CA,1603125901
Vero Beach,4176409,27.64,-80.4,82.4,74,14.99,75,US,1603125841
Hambantota,1244926,6.12,81.12,82.4,78,14.99,40,LK,1603125942
Nizhniy Kuranakh,2019135,58.84,125.49,22.64,95,4.32,91,RU,1603125942
Alta Floresta,6316343,-9.88,-56.09,92.43,42,5.1,76,BR,1603125942
Liaozhong,2036106,41.51,122.72,50,71,4.47,0,CN,1603125943
Broome,5110365,42.25,-75.83,57,81,5.82,90,US,1603125943
Goulburn,2164837,-34.75,149.72,52,85,7.87,96,AU,1603125943
Aksarka,1512019,66.56,67.8,14.74,95,3.27,0,RU,1603125943
Starosubkhangulovo,488618,53.1,57.44,47.73,68,1.54,88,RU,1603125944
Narsaq,3421719,60.92,-46.05,37.4,93,4.7,90,GL,1603125944
Chapais,5919850,49.78,-74.85,34.74,85,5.99,96,CA,1603125944
Tutóia,3385899,-2.76,-42.27,86.43,64,15.43,78,BR,1603125944
San Cristobal,3628473,7.77,-72.22,86,55,9.17,40,VE,1603125944
Shabo,694392,46.13,30.39,53.6,54,6.71,20,UA,1603125945
Paracuru,3393115,-3.41,-39.03,81,71,28.99,93,BR,1603125945
Lamu,189741,-2.27,40.9,80.6,74,5.82,1,KE,1603125945
Dingle,1714733,11,122.67,76.51,89,3.36,100,PH,1603125945
Choix,4014109,26.71,-108.32,93.34,32,1.05,0,MX,1603125945
Yumen,1528998,40.28,97.2,48.09,43,18.41,17,CN,1603125945
Wanning,1791779,18.8,110.4,76.64,86,16.33,100,CN,1603125945
Dauphin,5935341,51.15,-100.05,30.25,84,5.48,22,CA,1603125946
Drayton Valley,5942547,53.22,-114.99,21,83,1.99,99,CA,1603125664
Ati,2436400,13.22,18.34,95.41,13,7.23,0,TD,1603125946
Tāndā,1255024,26.55,82.65,77.34,49,3.65,45,IN,1603125946
Sühbaatar,2029156,50.23,106.21,32.32,86,15.26,100,MN,1603125946
Wakkanai,2127515,45.41,141.67,51.94,60,20.33,24,JP,1603125947
Sibu,1735902,2.3,111.82,78.8,94,1.12,40,MY,1603125947
Kyakhta,2021066,50.35,106.45,29.84,90,15.12,100,RU,1603125947
Nazaré,3456366,-13.04,-39.01,85.14,56,8.23,19,BR,1603125947
San Andrés,3670218,12.58,-81.7,87.8,74,5.82,75,CO,1603125947
Damāvand,138042,35.72,52.06,62.6,23,2.46,0,IR,1603125947
São João da Barra,3448903,-21.64,-41.05,77,69,23.04,75,BR,1603125948
Aubenas,3036418,44.62,4.39,57,68,7.87,84,FR,1603125948
Osakarovka,1520327,50.56,72.57,42.64,57,10,43,KZ,1603125948
Nagato,1899102,34.38,131.2,64.4,63,10.29,75,JP,1603125948
Lexington,4297983,37.99,-84.48,61,87,13.56,90,US,1603125761
Monrovia,2274895,6.3,-10.8,84.2,83,11.41,75,LR,1603125948
Yuncheng,1785738,35.02,110.99,58.5,41,3.71,95,CN,1603125949
Natal,3394023,-5.79,-35.21,86,58,18.34,40,BR,1603125816
Port Hedland,2063042,-20.32,118.57,73.4,83,12.75,0,AU,1603125949
Grindavik,3416888,63.84,-22.43,39.2,80,5.82,51,IS,1603125949
Laas,3175096,46.62,10.7,48,75,8.05,5,IT,1603125949
Iqaluit,5983720,63.75,-68.51,33.01,74,4,42,CA,1603125949
Pimentel,3693584,-6.84,-79.93,73.4,56,13.87,28,PE,1603125950
Acapulco de Juárez,3533462,16.86,-99.89,86,74,2.24,40,MX,1603125815
Carazinho,3466978,-28.28,-52.79,86.04,37,3.62,0,BR,1603125950
Ubari,2219235,26.59,12.78,80.42,32,13.04,3,LY,1603125950
Fairbanks,5861897,64.84,-147.72,17.6,85,1.12,75,US,1603125950
Iwaki,2112539,37.05,140.88,54,95,5.66,91,JP,1603125743
Palencia,3114530,42.42,-4.5,72,30,13,97,ES,1603125951
Riyadh,108410,24.69,46.72,80.6,18,5.82,0,SA,1603125743
Mersing,1732826,2.43,103.84,78.8,88,3.36,66,MY,1603125951
Tashla,484232,51.77,52.74,53.83,84,2.91,100,RU,1603125951
Balkanabat,161616,39.51,54.37,61.86,29,2.98,0,TM,1603125951
Havøysund,779622,71,24.66,41,80,8.05,75,NO,1603125952
