City Name,City ID,Latitude,Longitude,Max Temp(F),Humidity(%),Wind Speed (m/s),Cloudiness(%),Country Code,Date
Beringovskiy,2126710,63.05,179.32,40.95,88,12.71,99,RU,1603215185
Praia da Vitória,3372760,38.73,-27.07,64.4,72,27.34,40,PT,1603215352
Mirny,2019951,62.54,113.96,19.4,85,6.71,90,RU,1603215352
Sisimiut,3419842,66.94,-53.67,35.71,94,13.53,100,GL,1603215353
Vaini,4032243,-21.2,-175.2,69.8,77,9.17,40,TO,1603215353
Punta Arenas,3874787,-53.15,-70.92,48.2,45,20.8,75,CL,1603215307
Severo-Kuril'sk,2121385,50.68,156.12,40.17,71,25.5,36,RU,1603215353
Saint-Philippe,935215,-21.36,55.77,73.4,73,5.82,20,RE,1603215354
Rikitea,4030556,-23.12,-134.97,73.27,80,13.65,3,PF,1603215354
Gulu,233346,2.77,32.3,66.56,95,4.23,100,UG,1603215354
Bredasdorp,1015776,-34.53,20.04,59,62,12.75,0,ZA,1603215355
Thompson,6165406,55.74,-97.86,28.4,68,3.36,90,CA,1603215355
Spokane,5811704,47.62,-117.37,46,70,3.36,90,US,1603215355
Hong Kong,1819729,22.29,114.16,73.99,69,1.01,36,HK,1603215097
New Norfolk,2155415,-42.78,147.06,52,68,2.19,100,AU,1603215337
Misratah,2214846,32.38,15.09,72.25,55,9.01,5,LY,1603215356
Puerto Ayora,3652764,-0.74,-90.35,78.8,69,20.8,75,EC,1603215356
Deputatsky,2028164,69.3,139.9,8.78,97,2.35,100,RU,1603215357
Lebu,3883457,-37.62,-73.65,54.23,63,19.84,0,CL,1603215357
Busselton,2075265,-33.65,115.33,53.01,81,8.7,64,AU,1603215315
Caravelas,3466980,-17.71,-39.25,79.43,71,8.99,99,BR,1603215357
Philadelphia,4560349,39.95,-75.16,71.01,82,5.82,90,US,1603215319
Waingapu,1622318,-9.66,120.26,79.47,78,3.8,84,ID,1603215358
Datong,2037799,40.09,113.29,37.45,62,14.16,6,CN,1603215358
Skellefteå,602913,64.75,20.95,21.2,100,0.81,40,SE,1603215080
Fortuna,5563839,40.6,-124.16,53.6,93,6.76,1,US,1603215358
Albany,5106841,42.6,-73.97,64,72,0.38,100,US,1603215318
Saint Paul Harbor,5866583,57.79,-152.41,42.8,56,11.41,1,US,1603215183
Necochea,3430443,-38.55,-58.74,64,45,4,55,AR,1603215359
Quang Ngai,1568770,15.12,108.8,76.3,92,5.68,100,VN,1603215359
Jasper,4392354,37.2,-94.35,51.8,93,13.09,90,US,1603215359
Shimoda,1852357,34.67,138.95,55.99,81,3,10,JP,1603215359
Port Alfred,964432,-33.59,26.89,60.94,69,15.05,77,ZA,1603215254
Atuona,4020109,-9.8,-139.03,77.43,74,19.57,8,PF,1603215305
Salisbury,2638664,51.07,-1.8,60.01,87,14.99,20,GB,1603215360
Port Blair,1259385,11.67,92.75,81.45,84,13.35,37,IN,1603215360
Khatanga,2022572,71.97,102.5,6.96,95,8.08,84,RU,1603215360
Emerald,2167426,-23.53,148.17,71.6,78,6.93,75,AU,1603215361
Hobart,2163355,-42.88,147.33,53.6,81,5.82,90,AU,1603215271
Jamestown,5122534,42.1,-79.24,50,93,5.82,90,US,1603215317
Tasiilaq,3424607,65.61,-37.64,32,93,20.8,75,GL,1603215361
Cherskiy,2126199,68.75,161.3,17.94,95,4.9,62,RU,1603215362
Prince Rupert,6113406,54.32,-130.32,44.6,81,4.7,90,CA,1603215363
Rafsanjān,118994,30.41,55.99,53.22,34,3.96,0,IR,1603215363
San Cristobal,3628473,7.77,-72.22,89.6,49,10.29,40,VE,1603215364
Tiksi,2015306,71.69,128.87,11.5,93,15.35,100,RU,1603215318
Ushuaia,3833367,-54.8,-68.3,42.8,60,20.8,40,AR,1603215122
Bluff,2206939,-46.6,168.33,41,90,12.41,93,NZ,1603215364
Egvekinot,4031742,66.32,-179.17,33.94,100,7.67,100,RU,1603215364
Pelym,1495385,61.01,62,33.48,95,5.14,100,RU,1603215364
Castro,3466704,-24.79,-50.01,78.28,55,1.19,53,BR,1603215365
Salta,3838233,-24.79,-65.41,86,40,14.99,20,AR,1603215070
Mataura,6201424,-46.19,168.86,41,90,1.07,93,NZ,1603215309
Pervoye Maya,828440,56.16,44.72,32,89,4.47,90,RU,1603215366
Opuwo,3354077,-18.06,13.84,77.95,20,10.51,8,NA,1603215366
Port Lincoln,2063036,-34.73,135.87,57.33,85,10.98,78,AU,1603215367
Bambous Virieux,1106677,-20.34,57.76,75.99,73,11.41,20,MU,1603215340
Shumyachi,493405,53.86,32.42,36.01,84,6.67,75,RU,1603215367
Padang,1633419,-0.95,100.35,79.48,75,4.97,66,ID,1603215367
Longyearbyen,2729907,78.22,15.64,23,73,5.82,38,SJ,1603215367
Linqiong,1803365,30.42,103.46,59,82,6.71,98,CN,1603215367
Shelburne,6145890,44.08,-80.2,48,81,4.7,90,CA,1603215368
Leningradskiy,2123814,69.38,178.42,33.08,89,10.8,89,RU,1603215368
Taoudenni,2450173,22.68,-3.98,88.02,15,9.15,0,ML,1603215369
Bengkulu,1649150,-3.8,102.27,76.71,82,3.96,98,ID,1603215369
Drumheller,5942798,51.46,-112.71,25,77,3,53,CA,1603215369
Mossamedes,3347019,-15.2,12.15,71.6,78,19.46,90,AO,1603215369
Mahrīz,124274,31.59,54.43,64.4,10,6.93,0,IR,1603215370
Kerman,128234,30.28,57.08,57.2,8,11.41,0,IR,1603215370
Qaanaaq,3831208,77.48,-69.36,21.85,84,7.09,0,GL,1603215370
Mar del Plata,3430863,-38,-57.56,59,41,13.87,83,AR,1603215312
Kapaa,5848280,22.08,-159.32,77,88,5.82,75,US,1603215370
Pachino,6539213,36.72,15.09,63,75,1.01,26,IT,1603215371
Ciudad Bolivar,3645532,8.12,-63.55,94.28,44,6.91,55,VE,1603215371
Hithadhoo,1282256,-0.6,73.08,83.07,76,10.25,81,MV,1603215371
Tuktoyaktuk,6170031,69.45,-133.04,23,92,16.11,90,CA,1603215371
Kumul,1529484,42.8,93.45,44.53,54,0.2,0,CN,1603215372
Karratha,6620339,-20.74,116.85,67.42,78,11.01,35,AU,1603215183
Hermanus,3366880,-34.42,19.23,57.99,71,3,0,ZA,1603215372
Itaituba,3397967,-4.28,-55.98,101.28,27,5.46,92,BR,1603215372
Lavrentiya,4031637,65.58,-171,36.43,90,11.34,49,RU,1603215081
Mahébourg,934322,-20.41,57.7,75.2,73,11.41,20,MU,1603215373
Aksu,1529660,41.12,80.26,52.27,39,5.99,0,CN,1603215340
San Juan,3837213,-31.54,-68.54,80.46,17,12.77,0,AR,1603215373
Palauig,1696188,15.44,119.9,78.17,89,11.03,100,PH,1603215373
College,5859699,64.86,-147.8,14,85,1.01,90,US,1603215374
Hasaki,2112802,35.73,140.83,55.4,87,9.17,20,JP,1603215374
Racine,5268253,42.75,-88.08,46.99,70,8.05,40,US,1603215374
Honiara,2108502,-9.43,159.95,75.2,88,2.24,40,SB,1603215374
Bitung,1648636,1.45,125.18,75.2,88,1.12,40,ID,1603215375
Pudozh,504269,61.81,36.53,32.07,97,7.4,74,RU,1603215375
São Miguel do Araguaia,3448455,-13.28,-50.16,96.87,29,3.29,94,BR,1603215375
Barrow,5880054,71.29,-156.79,28.4,86,6.93,90,US,1603215375
Jiuquan,1279945,39.74,98.52,40.87,55,1.5,8,CN,1603215376
São João da Barra,3448903,-21.64,-41.05,78.8,65,16.11,75,BR,1603215376
Kologriv,546282,58.83,44.32,32.11,97,7.11,67,RU,1603215376
Alice Springs,2077895,-23.7,133.88,68,82,8.05,28,AU,1603215376
Aswān,359792,24.09,32.91,86.94,17,8.84,0,EG,1603215376
The Valley,3573374,18.22,-63.06,87.8,70,9.17,20,AI,1603215377
Haines Junction,5969025,60.75,-137.51,26.08,89,2.75,100,CA,1603215377
Talara,3691582,-4.58,-81.27,77,69,14.99,11,PE,1603215377
Mount Gambier,2156643,-37.83,140.77,44.6,100,3.18,90,AU,1603215377
Akranes,3418653,64.32,-22.07,37.4,69,6.93,40,IS,1603215378
Kavieng,2094342,-2.57,150.8,79.99,84,11.48,81,PG,1603215378
Cabo San Lucas,3985710,22.89,-109.91,93.99,46,5.82,5,MX,1603215157
Kisesa,156974,-3.08,34.15,70.66,70,11.12,86,TZ,1603215378
Chickasha,4533029,35.05,-97.94,57.99,87,9.17,90,US,1603215378
Nikolskoye,546105,59.7,30.79,37,89,6.71,75,RU,1603215379
Lagunillas,3637623,10.13,-71.26,86.58,66,3.76,100,VE,1603215379
Avarua,4035715,-21.21,-159.78,75.2,94,2.24,23,CK,1603215369
Guerrero Negro,4021858,27.98,-114.06,79.77,56,10.49,0,MX,1603215379
Cam Ranh,1586350,11.92,109.16,82.4,83,2.24,40,VN,1603215380
Asău,686090,46.43,26.4,44.6,81,3.11,0,RO,1603215380
Saint-Pierre,935214,-21.34,55.48,73.4,73,5.82,20,RE,1603215380
Dwārka,1272140,22.24,68.97,84.42,77,10.38,2,IN,1603215380
Srednekolymsk,2121025,67.45,153.68,17.58,97,3.65,95,RU,1603215380
Florianópolis,6323121,-27.61,-48.5,82.4,65,16.11,20,BR,1603215216
Kewanee,4898433,41.25,-89.92,48.99,78,4,100,US,1603215347
Souillac,933995,-20.52,57.52,75.2,73,11.41,20,MU,1603215381
Marsá Maţrūḩ,352733,31.35,27.25,77,69,9.17,40,EG,1603215109
Dingle,1714733,11,122.67,76.98,86,8.55,100,PH,1603215381
Saskylakh,2017155,71.92,114.08,21.34,97,6.96,88,RU,1603215381
Imeni Poliny Osipenko,2023584,52.42,136.49,30.65,93,9.22,76,RU,1603215185
Gravelbourg,5965462,49.88,-106.55,27.7,93,18.01,97,CA,1603215382
Viedma,3832899,-40.81,-63,73,26,1.99,11,AR,1603215382
Kinshasa,2314302,-4.32,15.32,86,62,4.7,20,CD,1603215382
Nizwá,286987,22.93,57.53,72.7,21,2.66,0,OM,1603215382
Moose Factory,6078372,51.26,-80.61,41,56,8.05,40,CA,1603215383
Poum,2138555,-20.23,164.02,73.92,71,6.53,0,NC,1603215383
Verkhnyaya Inta,1487332,65.98,60.31,21.94,98,3.76,96,RU,1603215383
Agüimes,2522325,27.91,-15.45,82.4,61,16.11,20,ES,1603215384
Kiunga,2093846,-6.12,141.29,73.63,98,1.19,100,PG,1603215384
Nome,5870133,64.5,-165.41,32,84,3.36,75,US,1603215384
Bathsheba,3374083,13.22,-59.52,87.8,66,12.75,75,BB,1603215384
Zhoucheng,1920772,35.91,116.31,57.33,56,8.23,98,CN,1603215385
Vila do Maio,3374120,15.13,-23.22,89.6,59,13.87,100,CV,1603215385
Cape Town,3369157,-33.93,18.42,62.01,62,14.99,2,ZA,1603215167
Wanning,1791779,18.8,110.4,73.04,85,11.34,85,CN,1603215385
Nouadhibou,2377457,20.93,-17.03,82.4,54,14.99,38,MR,1603215385
Guliston,1513966,40.49,68.78,57.42,33,1.23,0,UZ,1603215386
Saldanha,3361934,-33.01,17.94,64.4,52,17.22,0,ZA,1603215386
Oodweyne,53372,9.41,45.06,77.74,26,15.79,0,SO,1603215373
St. Marys,4220629,30.73,-81.55,80.01,88,14.99,75,US,1603215200
Yangi Marg`ilon,1513491,40.43,71.72,57.2,50,6.93,0,UZ,1603215386
Ahmadpur,1279227,18.7,76.93,74.61,85,4.85,92,IN,1603215386
Nanortalik,3421765,60.14,-45.24,37.58,85,3.96,98,GL,1603215387
Chui,3443061,-33.7,-53.46,56.34,82,16.75,100,UY,1603215387
Teguise,2510573,29.06,-13.56,80.6,69,17.22,20,ES,1603215308
Wairoa,2206808,-39.03,177.37,53.01,95,1.72,100,NZ,1603215387
Butaritari,2110227,3.07,172.79,82.17,72,8.55,93,KI,1603215387
Conceição do Araguaia,3401845,-8.26,-49.26,100.94,27,2.91,97,BR,1603215354
Lake Zurich,4899170,42.2,-88.09,46.99,87,6.93,90,US,1603215158
Kadaya,2023324,50.93,119.29,32.45,95,2.59,87,RU,1603215388
Narsaq,3421719,60.92,-46.05,35.6,93,3.36,75,GL,1603215388
Ilulissat,3423146,69.22,-51.1,42.8,60,11.41,75,GL,1603215388
Yellowknife,6185377,62.46,-114.35,26.6,79,2.24,75,CA,1603215369
Kitui,191038,-1.37,38.01,72.03,65,11.36,68,KE,1603215389
Ribeira Grande,3372707,38.52,-28.7,66.2,59,9.17,40,PT,1603215365
Ngunguru,2186111,-35.62,174.5,53.01,95,5.01,79,NZ,1603215389
La Paz,3911925,-16.5,-68.15,62.6,29,12.75,40,BO,1603215099
Šlapanice,3065901,49.17,16.73,50,66,11.41,85,CZ,1603215389
Faanui,4034551,-16.48,-151.75,78.64,83,17.09,79,PF,1603215390
Marabu,1738050,4.41,114.01,77,94,2.24,20,MY,1603215318
Klaksvík,2618795,62.23,-6.59,39.2,86,12.75,41,FO,1603215390
Sanguéya,2416061,10.7,-14.37,80.49,88,5.57,92,GN,1603215390
Te Anau,2181625,-45.42,167.72,33.37,92,1.12,16,NZ,1603215391
Huarmey,3939168,-10.07,-78.15,69.67,64,8.52,21,PE,1603215387
Cairns,2172797,-16.92,145.77,69.8,94,2.62,21,AU,1603215391
Dergachi,566456,51.23,48.77,43.18,58,9.31,0,RU,1603215391
Port Elizabeth,964420,-33.92,25.57,60.8,77,12.75,20,ZA,1603215391
Albanel,5883074,48.88,-72.45,35.6,93,8.05,90,CA,1603215321
Ponta do Sol,2264557,32.67,-17.1,73.4,49,4.7,20,PT,1603215145
Pevek,2122090,69.7,170.31,31.32,94,20.11,93,RU,1603215392
Carutapera,3402648,-1.2,-46.02,87.6,57,12.5,99,BR,1603215392
Aktyubinskiy,583548,54.81,52.81,35.51,85,7.72,33,RU,1603215392
Rocha,3440777,-34.48,-54.33,49.77,95,12.95,100,UY,1603215386
Aleksinac,793138,43.54,21.71,48.2,70,1.12,0,RS,1603215392
Urucará,3385670,-2.54,-57.76,100.11,29,6.11,79,BR,1603215207
Chokurdakh,2126123,70.63,147.92,14.22,97,2.06,91,RU,1603215393
Bubaque,2374583,11.28,-15.83,84.02,77,10.02,56,GW,1603215393
Upernavik,3418910,72.79,-56.15,33.03,88,8.34,100,GL,1603215212
Wewak,2083537,-3.55,143.63,78.39,78,1.41,100,PG,1603215393
Villa Carlos Paz,3832791,-31.42,-64.5,59,93,10.29,90,AR,1603215378
Wamba,2319257,8.93,8.6,77.9,76,1.63,10,NG,1603215393
Antofagasta,3899539,-23.65,-70.4,66.99,67,10.29,20,CL,1603215394
Solnechnyy,2016307,50.72,136.63,33.69,86,6.33,77,RU,1603215307
Hobyo,57000,5.35,48.53,80.4,81,17.38,10,SO,1603215394
Norman Wells,6089245,65.28,-126.83,19.4,85,10.29,75,CA,1603215394
Tarpon Springs,4174855,28.15,-82.76,86,66,8.05,94,US,1603215156
Sørland,3137469,67.67,12.69,41,68,12.75,75,NO,1603215395
Shirgaon,1256486,19.7,72.7,81.79,84,1.36,37,IN,1603215395
Najrān,103630,17.49,44.13,73.4,23,6.93,22,SA,1603215395
Itarema,3393692,-2.92,-39.92,84.56,62,22.08,53,BR,1603215395
Freeport,5117949,40.66,-73.58,66.99,88,3.36,90,US,1603215330
Dikson,1507390,73.51,80.55,21.7,95,8.05,94,RU,1603215395
Airai,1651810,-8.93,125.41,60.94,73,1.77,100,TL,1603215165
Dalmatovo,1507565,56.26,62.94,38.7,79,8.28,68,RU,1603215290
Westport,4845585,41.14,-73.36,66.99,82,3.36,90,US,1603215306
Yumen,1528998,40.28,97.2,46.27,45,8.75,0,CN,1603215396
Clyde River,5924351,70.47,-68.59,32,88,21.92,1,CA,1603215396
Rionegro,3670730,6.16,-75.37,70,64,9.17,75,CO,1603215397
Berezanka,712387,46.85,31.39,50.81,51,4.09,6,UA,1603215397
Tilichiki,2120591,60.47,166.1,39.11,100,13.62,100,RU,1603215397
Severodvinsk,496285,64.56,39.83,30.2,86,4.47,40,RU,1603215397
Omaruru,3354540,-21.43,15.93,70.23,27,6.35,0,NA,1603215397
Cliza,3920016,-17.6,-65.93,75.2,31,11.41,40,BO,1603215397
Balaipungut,1650600,1.05,101.28,78.8,100,1.54,20,ID,1603215398
Springdale,4132093,36.19,-94.13,62.6,100,11.21,90,US,1603215398
Dongsheng,1812256,39.82,109.98,31.8,78,11.77,0,CN,1603215398
Brodick,2654604,55.58,-5.15,57.2,76,10.29,40,GB,1603215398
Carnarvon,2074865,-24.87,113.63,68,82,16.11,40,AU,1603215341
Kampene,214575,-3.6,26.67,68.94,95,1.61,100,CD,1603215398
Kapuskasing,5989403,49.42,-82.43,39.2,44,6.93,40,CA,1603215399
Spearfish,5769288,44.49,-103.86,43,86,14.99,93,US,1603215399
Kadingilan,1709828,7.6,124.91,71.02,92,0.69,100,PH,1603215399
Hibbing,5030005,47.43,-92.94,32,80,8.05,90,US,1603215196
Broome,5110365,42.25,-75.83,60.01,93,8.05,90,US,1603215399
Chapais,5919850,49.78,-74.85,37.4,64,8.05,90,CA,1603215399
Berea,5147097,41.37,-81.85,53.01,87,10.29,90,US,1603215252
Kavaratti,1267390,10.57,72.64,81.14,74,9.42,97,IN,1603215400
Kloulklubed,7671223,7.04,134.26,75.2,94,3.36,90,PW,1603215400
San Quintín,3984997,30.48,-115.95,74.39,65,11.18,18,MX,1603215400
Labuan,1733782,5.28,115.24,77,94,4.94,20,MY,1603215400
Hilo,5855927,19.73,-155.09,71.01,68,9.17,20,US,1603214844
Lompoc,5367788,34.64,-120.46,55.4,100,3.36,90,US,1603215401
Northam,2641434,51.03,-4.22,59,87,4,48,GB,1603215401
Marsh Harbour,3571913,26.54,-77.06,81.46,76,21.09,78,BS,1603215321
Khandyga,2022773,62.67,135.6,15.55,97,3.91,100,RU,1603215401
Cidreira,3466165,-30.18,-50.21,72.95,76,11.99,1,BR,1603215401
Hūn,2216645,29.13,15.95,71.42,42,10.4,16,LY,1603215402
Umluj,100926,25.02,37.27,82.08,52,4.34,0,SA,1603215402
Pochutla,3517970,15.74,-96.47,90,58,6.04,20,MX,1603215402
Kassala,372753,15.45,36.4,89.04,12,6.69,0,SD,1603215402
Bira,2026659,49,132.47,33.46,91,3.09,100,RU,1603215403
Ketchikan,5554428,55.34,-131.65,42.8,100,3.78,75,US,1603215403
Oktyabr'skiy,515879,54.48,53.47,37.51,77,5.73,1,RU,1603215403
Oussouye,2246901,12.48,-16.55,95,70,4.7,40,SN,1603215403
Port-Gentil,2396518,-0.72,8.78,78.8,94,13.87,75,GA,1603215184
Poddor'ye,508441,57.47,31.12,36.77,86,5.61,74,RU,1603215403
Dalby,2169535,-27.18,151.27,62.01,79,3,84,AU,1603215404
Duluth,5024719,46.78,-92.11,37.4,55,10.29,75,US,1603215402
Jackson,5733351,42.42,-122.83,55.4,62,4.7,1,US,1603215213
Xai-Xai,1024552,-25.05,33.64,75.16,83,26.11,5,MZ,1603215404
Lappeenranta,648900,61.06,28.19,32,94,5.82,90,FI,1603215405
Preobrazheniye,2017658,42.9,133.91,50.23,79,2.77,0,RU,1603215405
Emba,609924,48.83,58.14,48.88,57,15.61,24,KZ,1603215405
Tamayo,3492520,18.39,-71.2,86,79,11.41,20,DO,1603215405
Bethel,5282297,41.37,-73.41,68,88,6.93,90,US,1603215406
Bull Savanna,3491161,17.89,-77.59,81.01,77,15.48,80,JM,1603215406
Bilibino,2126682,68.05,166.44,21.47,95,1.54,100,RU,1603215406
Talnakh,1490256,69.49,88.4,8.6,84,4.47,75,RU,1603215407
Vao,2137773,-22.67,167.48,72.81,79,18.03,33,NC,1603215407
Joshīmath,1268814,30.57,79.57,51.94,45,2.55,8,IN,1603215408
Macaé,3458266,-22.37,-41.79,78.8,69,21.92,49,BR,1603215408
Los Llanos de Aridane,2514651,28.66,-17.92,78.8,65,13.87,40,ES,1603215408
Hillsborough,5357155,37.57,-122.38,73,72,1.99,20,US,1603215408
Laas,3175096,46.62,10.7,48.99,86,4.7,40,IT,1603215409
Giohar,56335,2.78,45.5,78.6,78,12.8,68,SO,1603215409
Nouna,2357163,12.73,-3.87,91.13,24,2.39,0,BF,1603215409
Fukuechō,1863997,32.69,128.84,70.47,63,10.94,7,JP,1603215410
Kalmunai,1242110,7.42,81.82,80.78,79,3.98,10,LK,1603215410
Iqaluit,5983720,63.75,-68.51,30.2,74,2.24,75,CA,1603215410
Nishihara,1855342,26.18,127.76,80.6,74,13.87,75,JP,1603215410
Bongandanga,218229,1.5,21.05,74.98,83,0.4,20,CD,1603215411
Healdsburg,5356012,38.61,-122.87,82,63,1.43,1,US,1603215218
Arraial do Cabo,3471451,-22.97,-42.03,78.8,69,21.92,6,BR,1603215384
Vila Velha,3445026,-20.33,-40.29,77,88,4.7,90,BR,1603215411
Kikwit,2314705,-5.04,18.82,74.73,85,2.19,36,CD,1603215412
Banda Aceh,1215502,5.56,95.32,80.51,76,7,71,ID,1603215412
Camabatela,2242885,-8.19,15.38,67.24,89,2.53,59,AO,1603215412
Medeiros Neto,3457360,-17.37,-40.22,81.82,64,10.56,100,BR,1603215412
Paka,1734313,4.64,103.44,77,100,0.83,28,MY,1603215412
Sinnamary,3380290,5.38,-52.95,86.88,60,14.38,50,GF,1603215413
Kenai,5866063,60.55,-151.26,24.8,85,4,1,US,1603215413
Tegul'det,1489822,57.31,88.17,35.58,97,5.95,96,RU,1603215413
Kamyshevatskaya,553310,46.41,37.96,55.67,56,13.94,1,RU,1603215414
Port Hedland,2063042,-20.32,118.57,71.6,94,10.29,22,AU,1603215414
Riverton,5780557,40.52,-111.94,66.99,41,0.92,2,US,1603215414
Gemeente Wageningen,2745087,51.97,5.67,57.99,93,10.29,75,NL,1603215414
Nouakchott,2377450,18.09,-15.98,105.8,10,17.22,0,MR,1603215414
Helong,2036933,42.54,129,45.91,56,4,72,CN,1603215411
Kaitangata,2208248,-46.28,169.85,48,85,1.99,98,NZ,1603215353
Rafaela,3839479,-31.25,-61.49,58.05,94,15.55,100,AR,1603215415
Kampot,1831112,10.62,104.18,77,94,5.84,40,KH,1603215415
Harper,2276492,4.38,-7.72,78.69,80,8.19,98,LR,1603215339
Bowen,2174444,-20.02,148.23,64.4,93,1.12,12,AU,1603215250
Severnyy,496358,50.68,36.55,42.8,72,8.95,13,RU,1603215416
Batagay-Alyta,2027042,67.8,130.41,9.88,90,1.95,90,RU,1603215416
Guánica,4565090,17.97,-66.91,88,58,6.24,74,PR,1603215416
Urdoma,478769,61.75,48.54,30.42,99,3.67,99,RU,1603215416
Dogondoutchi,2445553,13.64,4.03,97.11,15,10.27,0,NE,1603215417
Ibrā’,287832,22.69,58.53,69.49,31,2.8,0,OM,1603215417
Touros,3386213,-5.2,-35.46,84.2,58,16.11,40,BR,1603215417
Lüderitz,3355672,-26.65,15.16,71.22,35,31.47,0,NA,1603215417
Berlevåg,780687,70.86,29.09,30.2,100,4.7,75,NO,1603215418
Corner Brook,5927969,48.97,-57.95,60.8,93,2.24,90,CA,1603215187
Benghazi,88319,32.12,20.07,70.56,72,17.67,0,LY,1603215178
Tongchuanshi,1795196,35.08,109.09,54.16,37,10.67,76,CN,1603215418
Maniitsoq,3421982,65.42,-52.9,35.96,96,17.56,100,GL,1603215418
Eureka,5563397,40.8,-124.16,53.6,93,4.7,40,US,1603215170
Genhe,2037252,50.78,121.52,31.84,94,1.99,63,CN,1603215419
Tura,1254046,25.52,90.22,73.27,86,3.51,3,IN,1603215419
Esperance,2071860,-33.87,121.9,59,100,11.41,90,AU,1603215414
Provideniya,4031574,64.38,-173.3,39.47,95,12.62,87,RU,1603215419
Ellisras,1005768,-23.66,27.74,86.77,13,4.81,3,ZA,1603215419
Celestún,3531368,20.87,-90.4,83.7,74,12.39,1,MX,1603215419
Peterhead,2640351,57.51,-1.8,52,93,6.93,20,GB,1603215163
Nacala,1035025,-14.54,40.67,76.33,80,4.25,0,MZ,1603215420
Sivaki,2016477,52.63,126.75,38.73,92,10.09,100,RU,1603215420
Rossland,6127950,49.08,-117.8,41,89,0.92,52,CA,1603215420
Kenora,5991056,49.82,-94.43,30.2,46,10.29,75,CA,1603215264
Morondava,1058381,-20.28,44.28,78.66,68,12.06,0,MG,1603215420
Wanxian,1791748,30.8,108.39,58.66,79,4.52,98,CN,1603215420
Bantou,1796663,26.22,117.49,61.83,88,2.46,49,CN,1603215421
La Santisima Trinidad,3902377,-14.83,-64.9,87.8,62,6.93,75,BO,1603215421
Alekseyevsk,2022083,57.84,108.35,26.49,95,8.23,100,RU,1603215421
Ouango,236844,4.31,22.56,75.33,82,0.94,76,CF,1603215421
Dudinka,1507116,69.41,86.18,8.6,84,4.47,75,RU,1603215278
Homer,5864145,59.64,-151.55,37,92,7.43,1,US,1603215171
Lagoa,3372964,39.05,-27.98,63.05,68,27.69,27,PT,1603215422
Tokat,738742,40.42,36.58,45.27,100,4.99,89,TR,1603215422
Constitución,3893726,-35.33,-72.42,62.62,52,18.7,0,CL,1603215422
Portland,5746545,45.52,-122.68,57,82,6.93,75,US,1603214975
Sovetskiy,1491230,61.36,63.58,33.01,95,5.61,100,RU,1603215422
Nerchinsk,2019326,51.98,116.58,28.15,84,13.58,98,RU,1603215423
Okahandja,3354898,-21.98,16.92,84.2,13,12.75,21,NA,1603215423
Gusau,2339937,12.16,6.66,86.25,22,8.03,2,NG,1603215423
Topi,1163224,34.07,72.62,70,52,5.82,0,PK,1603215424
Chirilagua,3587018,13.22,-88.14,89.6,74,2.24,20,SV,1603215424
Boende,218680,-0.22,20.87,75,79,1.36,5,CD,1603215424
Nortelândia,3456248,-14.45,-56.8,99.77,32,1.95,76,BR,1603215424
Tuatapere,2180815,-46.13,167.68,41,90,5.03,40,NZ,1603215425
Yeppoon,2142316,-23.13,150.73,73.4,73,6.93,90,AU,1603215425
East London,1006984,-33.02,27.91,62.6,67,19.46,30,ZA,1603215426
Novokruchininskiy,2018925,51.78,113.77,24.8,62,11.18,49,RU,1603215426
San Ramon,5392593,37.78,-121.98,75.99,45,2.53,1,US,1603215409
George Town,1735106,5.41,100.34,82.4,88,3.36,20,MY,1603215144
Semme,3006387,46.2,1.5,62.01,72,16.11,100,FR,1603215427
St. George's,3579925,12.06,-61.75,87.8,70,19.46,20,GD,1603215428
Liverpool,2644210,53.41,-2.98,60.8,72,12.75,40,GB,1603215159
Williston,5692947,48.15,-103.62,33.01,83,8.99,92,US,1603215428
Abū Zabad,380348,12.35,29.25,88.27,30,4.74,23,SD,1603215428
Kahului,5847411,20.89,-156.47,75.99,73,5.82,1,US,1603215218
Marawi,1701054,8,124.29,75.99,95,4,100,PH,1603215179
Torbay,6167817,47.67,-52.73,61,63,19.46,75,CA,1603215166
Katsuura,2112309,35.13,140.3,60.8,77,13.87,20,JP,1603215419
Sittwe,1295765,20.15,92.9,81.75,79,14,87,MM,1603215429
Takoradze,2294915,4.88,-1.76,78.12,87,10.45,82,GH,1603215429
Izhmorskiy,1505228,56.19,86.64,35.69,94,9.33,97,RU,1603215430
San Policarpo,1688696,12.18,125.51,79.9,83,10.25,99,PH,1603215397
Pizarro,3672086,4.95,-77.37,80.17,82,7.07,93,CO,1603215430
Mago,2123621,53.25,140.18,28.53,85,2.91,23,RU,1603215431
Port Moresby,2088122,-9.44,147.18,75.49,91,8.34,66,PG,1603215431
Aksha,2028028,50.28,113.29,24.03,85,14.03,60,RU,1603215431
Nānākuli,5851349,21.39,-158.15,80.6,74,12.75,20,US,1603215431
Tucumcari,5495360,35.17,-103.72,69.8,26,4.7,1,US,1603215186
Rechka Vydrino,2013225,51.48,104.85,31.39,78,4.85,71,RU,1603215432
Coyhaique,3894426,-45.58,-72.07,51.8,50,10.29,20,CL,1603215432
Hay River,5972762,60.82,-115.8,21.2,92,10.29,75,CA,1603215432
Solliès-Pont,2974338,43.19,6.04,62.6,77,14.99,75,FR,1603215432
Pinos,3992485,22.3,-101.57,68,49,3.36,5,MX,1603215433
Alofi,4036284,-19.06,-169.92,71.6,88,10.29,72,NU,1603215433
Xucheng,1787837,20.35,110.13,75.2,83,8.95,40,CN,1603215433
Shyroke,694025,47.69,33.26,46.4,61,5.41,31,UA,1603215427
Okmulgee,4544383,35.62,-95.96,55.4,100,4.7,90,US,1603215434
Mandalgovi,2030065,45.76,106.27,19.35,81,10,0,MN,1603215432
Saquena,3692020,-4.67,-73.52,93.83,46,3.33,84,PE,1603215434
Merauke,2082539,-8.47,140.33,78.82,84,10.49,74,ID,1603215434
Faya,110690,18.39,42.45,66.2,13,9.17,0,SA,1603215434
Lambaréné,2399888,-0.7,10.24,74.17,93,5.32,98,GA,1603215435
Upata,3625710,8.01,-62.4,93,57,3,21,VE,1603215435
Sosnovo-Ozerskoye,2016216,52.52,111.54,18.66,91,9.6,0,RU,1603215435
Nhulunbuy,2064735,-12.23,136.77,73.4,88,2.24,32,AU,1603215263
Biltine,244878,14.53,20.92,90,12,9.44,0,TD,1603215417
Orašac,3194041,44.63,16.07,49.03,77,3.96,19,BA,1603215436
Santiago del Estero,3835869,-27.8,-64.26,71.53,69,16.82,86,AR,1603215414
Santa Ana,5392900,33.75,-117.87,71.6,64,3.36,75,US,1603215145
Salalah,286621,17.02,54.09,84.2,54,4.7,72,OM,1603215419
Nabire,1634614,-3.37,135.48,76.08,88,4.63,100,ID,1603215437
Prome,1299154,18.82,95.22,72.66,97,2.51,100,MM,1603215296
Bocana de Paiwas,3620661,12.79,-85.12,84.56,73,3.91,66,NI,1603215437
Ippy,238566,6.27,21.22,73.2,87,1.23,39,CF,1603215437
High Level,5975004,58.52,-117.14,12.2,100,2.24,40,CA,1603215438
Iquitos,3696183,-3.75,-73.25,89.6,62,4.7,75,PE,1603215438
Estación Coahuila,3979494,32.19,-115,90,26,3.36,5,MX,1603215438
Monkey Bay,926308,-14.07,34.92,83.26,55,5.88,24,MW,1603215439
Nador,2541479,35.17,-2.93,73.4,60,5.82,62,MA,1603215439
Isla Vista,5359864,34.41,-119.86,62.6,88,4.12,90,US,1603215216
Carbondale,4235193,37.73,-89.22,54,87,4.7,90,US,1603215440
Pangnirtung,6096551,66.15,-65.71,30.2,68,6.46,90,CA,1603215440
Coronel Oviedo,3438819,-25.42,-56.45,94.01,32,1.59,24,PY,1603215156
Vostok,2013279,46.49,135.88,32.38,91,5.28,24,RU,1603215441
Esmeralda,3559318,21.85,-78.12,84.2,70,9.17,75,CU,1603215441
Vardø,777019,70.37,31.11,37.4,86,16.11,75,NO,1603215441
Svetlaya,2015852,46.54,138.33,44.49,58,3.4,0,RU,1603215442
Saint George,5546220,37.1,-113.58,64.4,17,0.58,1,US,1603215359
Lensk,2020838,60.73,114.93,23.41,96,6.08,98,RU,1603215443
Kirakira,2178753,-10.45,161.92,77.7,81,12.68,100,SB,1603215396
Mehamn,778707,71.04,27.85,35.92,81,7.65,98,NO,1603215443
Nemuro,2128975,43.32,145.57,49.48,66,5.03,50,JP,1603215444
Aasiaat,3424901,68.71,-52.87,36.07,87,7.23,100,GL,1603215444
Henties Bay,3356832,-22.12,14.28,60.01,81,1.01,0,NA,1603215444
Palmeiras de Goiás,3455362,-16.8,-49.93,71.42,85,5.48,100,BR,1603215444
Syamzha,485351,60.02,41.06,28.8,95,8.43,93,RU,1603215444
Pierre,5767918,44.37,-100.35,41,86,6.93,90,US,1603215316
Toora-Khem,1489401,52.47,96.11,25.43,93,2.04,100,RU,1603215445
Partenit,709075,44.58,34.34,53.91,53,7.56,0,UA,1603215445
Korla,1529376,41.76,86.15,52,67,4,0,CN,1603215373
Richards Bay,962367,-28.78,32.04,68.65,74,12.93,94,ZA,1603215446
Lorengau,2092164,-2.02,147.27,80.82,70,2.75,92,PG,1603215446
Avera,4231997,33.19,-82.53,77,61,9.17,1,US,1603215446
Vanimo,2084442,-2.67,141.3,78.33,80,1.77,100,PG,1603215447
Auki,2109701,-8.77,160.7,77.68,82,3.53,80,SB,1603215447
Ürümqi,1529102,43.8,87.6,48.2,34,2.24,0,CN,1603215447
Hamilton,4513583,39.18,-84.53,53.6,93,4.7,90,US,1603215313
Xiaoyi,1789898,34.62,109.7,59.22,35,5.1,75,CN,1603215448
Bilma,2446796,18.69,12.92,85.91,13,5.14,0,NE,1603215448
Dawlatabad,1142226,36.41,64.91,56.1,34,5.06,0,AF,1603215448
Fort Saint James,5881688,54.43,-124.25,34.48,87,2.17,32,CA,1603215449
San,2451778,13.3,-4.9,90.79,21,2.77,0,ML,1603215449
Colgong,1273856,25.27,87.22,77.43,60,0.98,0,IN,1603215449
Uzhur,1487882,55.3,89.83,36.03,83,8.14,99,RU,1603215449
Española,5467024,35.99,-106.08,66.99,15,4.7,1,US,1603215449
Karasburg,3356343,-28.02,18.75,65.86,22,9.55,0,NA,1603215450
Seoul,1835848,37.57,126.98,50,93,2.13,75,KR,1603215315
Ust-Nera,2120048,64.57,143.2,5.22,86,4.52,91,RU,1603215450
Khovd,1516048,48.01,91.64,29.32,81,1.39,62,MN,1603215450
Shenjiamen,1795632,29.96,122.3,68.18,82,9.24,35,CN,1603215187
Lagoa Formosa,3459181,-18.78,-46.41,66.99,100,4,100,BR,1603215450
Mnogovershinnyy,2019935,53.94,139.92,27.37,87,6.02,45,RU,1603215410
Farah,1142263,32.5,62.5,48.49,44,3,0,AF,1603215451
Rome,5134295,43.21,-75.46,53.6,87,8.05,90,US,1603215438
Bafoulabé,2460755,13.81,-10.83,92.19,25,4.7,34,ML,1603215451
Lagos,2332453,6.58,3.75,82.4,83,10.29,40,NG,1603215320
Sobolevo,525426,54.43,31.9,35.56,84,5.53,72,RU,1603215452
Vuktyl,470905,63.86,57.31,28.87,99,4.36,99,RU,1603215452
Mainpuri,1264292,27.23,79.02,75.04,20,1.36,0,IN,1603215453
Kargopol',552465,61.51,38.95,28.87,97,8.66,35,RU,1603215453
Longkou,1802550,37.65,120.33,62.29,67,19.42,99,CN,1603215453
Lloydminster,6058024,53.28,-110,21.2,92,8.05,90,CA,1603215454
Rawson,3839307,-43.3,-65.1,57.79,38,15.37,51,AR,1603215454
Baracoa,3567834,20.35,-74.5,83.37,75,7.54,52,CU,1603215454
Port Hardy,6111862,50.7,-127.42,50,93,4.7,75,CA,1603215455
Saint-Augustin,6137462,51.23,-58.65,46.22,84,6.8,100,CA,1603215455
Beckley,4798308,37.78,-81.19,73.4,60,9.17,20,US,1603215301
Sovetsk,490068,55.08,21.88,45,82,10.27,100,RU,1603215455
Hofn,2630299,64.25,-15.21,37.51,72,3.36,3,IS,1603215455
Angoche,1052944,-16.23,39.91,78.53,74,10.45,0,MZ,1603215456
Bulgan,2032201,48.81,103.53,24.55,86,3.83,64,MN,1603215188
Coquimbo,3893629,-29.95,-71.34,62.6,67,18.34,0,CL,1603215456
Katobu,1640972,-4.94,122.53,74.25,82,3.94,52,ID,1603215456
Heidenreichstein,2776603,48.87,15.12,46.99,91,4,100,AT,1603215448
Sharjah city,292672,25.36,55.4,86,44,2.24,0,AE,1603215457
Ottumwa,4870380,41.02,-92.41,45,81,13.87,90,US,1603215457
Donegal,2964752,54.65,-8.12,55.4,87,14.99,20,IE,1603215457
Harlingen,4696233,26.19,-97.7,88,58,11.41,20,US,1603215457
Dire Dawa,338832,9.59,41.87,70.75,39,5.93,0,ET,1603215458
Yar-Sale,1486321,66.83,70.83,23.05,98,1.68,100,RU,1603215458
Haldwani,1270498,29.22,79.52,71.01,60,4.76,0,IN,1603215459
Mazamari,3935102,-11.33,-74.53,80.94,72,1.54,88,PE,1603215459
Clovis,5338122,36.83,-119.7,71.6,37,5.82,75,US,1603215321
Andra,1511646,62.51,65.89,32.05,99,4.72,100,RU,1603215459
Naze,1855540,28.37,129.48,73.4,88,12.75,75,JP,1603215292
Novonikolayevskiy,518488,50.97,42.36,43,59,4,36,RU,1603215460
Husavik,2629833,66.04,-17.34,32,90,3.36,63,IS,1603215460
Christchurch,2192362,-43.53,172.63,52,93,6.93,98,NZ,1603215331
Vaitape,4033077,-16.52,-151.75,79.48,81,17,80,PF,1603215461
Jumla,1283285,29.27,82.18,48.67,56,4.61,9,NP,1603215461
Vila Franca do Campo,3372472,37.72,-25.43,62.6,67,17.22,40,PT,1603215461
Loralai,1171868,30.37,68.6,59.4,22,3.65,0,PK,1603215313
Bafra,751335,41.57,35.91,59,87,5.82,75,TR,1603215462
Pisco,3932145,-13.7,-76.22,66.2,77,11.41,40,PE,1603215462
Chabahar,1161724,25.29,60.64,75.2,69,9.17,0,IR,1603215462
Omboué,2396853,-1.57,9.26,77.05,86,5.88,96,GA,1603215463
Rutul,500316,41.54,47.42,64.4,88,2.24,90,RU,1603215463
Bandarbeyla,64814,9.49,50.81,79.84,74,3.87,0,SO,1603215464
Sri Aman,1735799,1.24,111.46,77,94,1.12,100,MY,1603215465
Port-Cartier,6111696,50.03,-66.87,43,100,11.41,90,CA,1603215465
Santiago de Cao,3692073,-7.96,-79.24,66.2,77,12.75,20,PE,1603215466
Casablanca,2553604,33.59,-7.62,77,53,24.16,99,MA,1603215466
Kjøllefjord,779261,70.95,27.35,35.4,83,7.11,97,NO,1603215467
Enshi,1811720,30.3,109.48,53.4,79,0.34,99,CN,1603215467
Sabha,2212775,27.04,14.43,76.39,38,11.25,81,LY,1603215250
Vangaindrano,1054329,-23.35,47.6,70.39,90,7.14,4,MG,1603215467
Saint Anthony,5044290,45.02,-93.22,32,92,6.93,90,US,1603215421
Orange Park,4167102,30.17,-81.71,84.2,78,8.05,90,US,1603215468
Oranjestad,3577154,12.52,-70.03,78.8,88,5.82,40,AW,1603215468
Kununurra,2068110,-15.77,128.73,80.6,83,5.84,0,AU,1603215469
Gympie,2164129,-26.19,152.66,58.73,94,2.3,48,AU,1603215469
Buritama,3468789,-21.07,-50.15,82.99,61,5.88,48,BR,1603215261
Yinzhu,1792087,35.88,119.98,64.99,72,4.47,40,CN,1603215447
Cabedelo,3404558,-6.98,-34.83,86,55,14.99,40,BR,1603215470
Tuensang,1254133,26.28,94.83,66.04,85,3.71,30,IN,1603215471
Moshenskoye,525025,58.51,34.59,30.2,98,5.28,64,RU,1603215471
Sistranda,3139597,63.73,8.83,39.2,69,13.87,75,NO,1603215471
Buin,3897774,-33.73,-70.75,82.99,27,5.82,0,CL,1603215472
Laguna,5364271,38.42,-121.42,73.99,49,3.36,1,US,1603215472
Yerbogachën,2012956,61.28,108.01,21.33,96,8.01,100,RU,1603215472
Dauphin,5935341,51.15,-100.05,30.2,58,5.82,90,CA,1603215473
Aksarka,1512019,66.56,67.8,19.83,98,3.74,96,RU,1603215473
Marsaxlokk,2562247,35.84,14.54,66.99,72,4.7,20,MT,1603215473
Lábrea,3663684,-7.26,-64.8,93.96,40,6.46,94,BR,1603215473
Kaeo,2189343,-35.1,173.78,53.01,95,5.01,62,NZ,1603215473
Kukushtan,539640,57.65,56.5,35.6,100,8.95,15,RU,1603215474
San Patricio,4726521,28.02,-97.52,87.8,58,10.29,75,US,1603215474
Orán,3836620,-23.13,-64.33,97,35,8.01,9,AR,1603215474
Tangwani,1163912,28.28,69,77,61,4.23,0,PK,1603215474
Sangar,2017215,63.92,127.47,15.44,94,9.66,100,RU,1603215475
Livingston,2644204,55.9,-3.52,55.4,82,5.82,75,GB,1603215475
Río Gallegos,3838859,-51.62,-69.22,51.8,40,11.41,75,AR,1603215475
Oppdal,3143513,62.59,9.69,28.76,92,8.55,100,NO,1603215475
Santa Maria da Vitória,3450063,-13.39,-44.19,95.4,29,4,94,BR,1603215475
Gorgan,132892,36.84,54.43,68,82,2.15,75,IR,1603215476
Yulara,6355222,-25.24,130.99,69.8,60,8.05,0,AU,1603215476
Riyadh,108410,24.69,46.72,75.2,23,4.7,0,SA,1603215420
Nelson Bay,2155562,-32.72,152.15,62.01,87,6.93,0,AU,1603215476
Bozüyük,320557,39.91,30.04,59,87,1.12,40,TR,1603215477
Erenhot,2037485,43.65,111.98,31.77,80,21.25,91,CN,1603215477
Ahipara,2194098,-35.17,173.17,56.84,80,5.32,98,NZ,1603215457
Hirara,1862505,24.8,125.28,80.6,81,25.1,100,JP,1603215478
Eyrarbakki,3413604,63.86,-21.15,37.4,69,6.93,40,IS,1603215478
Khingansk,2022454,49.12,131.18,33.8,90,8.75,97,RU,1603215478
Arrondissement de Brive-la-Gaillarde,3029973,45.25,1.5,60.01,78,14,100,FR,1603215478
Teya,1489656,60.38,92.63,27.16,97,3.6,85,RU,1603215430
São Filipe,3374210,14.9,-24.5,86.49,54,8.28,81,CV,1603215385
Sahuaripa,3988265,29.05,-109.23,90.82,16,2.84,0,MX,1603215479
San Pedro de Cajas,3929335,-11.25,-75.86,52.25,60,10.78,70,PE,1603215479
Port Macquarie,2152659,-31.43,152.92,55,99,3.91,18,AU,1603215410
Nantucket,4944903,41.28,-70.1,60.8,87,11.41,90,US,1603215471
Bundaberg,2173323,-24.85,152.35,68,77,5.82,90,AU,1603215480
Puerto Madryn,3840092,-42.77,-65.04,61.14,31,9.78,20,AR,1603215403
Jalu,86049,29.03,21.55,76.19,47,6.8,0,LY,1603215422
Gisborne,2206854,-38.65,178,53.01,95,3.58,100,NZ,1603215481
Verāval,1253237,20.9,70.37,83.32,80,10.04,46,IN,1603215481
Charters Towers,2171722,-20.1,146.27,66.79,91,9.06,0,AU,1603215481
Teotitlán,3801145,18.13,-97.08,81.01,48,2.84,48,MX,1603215482
Muzhi,1498161,65.37,64.67,22.39,98,3.96,98,RU,1603215482
Innisfail,2162683,-17.53,146.03,69.33,88,2.51,16,AU,1603215483
Kismayo,55671,-0.36,42.55,79.3,78,14.74,2,SO,1603215483
Maumere,1635815,-8.62,122.21,79.63,78,3.74,100,ID,1603215483
Russell,4047434,32.35,-85.2,80.6,54,6.93,40,US,1603215483
Tongliao,2034400,43.61,122.27,58.57,41,19.93,97,CN,1603215484
Talaya,2120769,61.38,152.75,14.07,92,1.05,28,RU,1603215484
Jacareacanga,3397763,-6.22,-57.75,96.96,35,4.43,97,BR,1603215405
Iquique,3887127,-20.22,-70.14,66.2,63,9.17,75,CL,1603215350
Anadyr,2127202,64.75,177.48,41,86,17.9,75,RU,1603215485
Denpasar,1645528,-8.65,115.22,80.6,88,6.93,20,ID,1603215485
Paraná,3841956,-31.73,-60.52,58.93,88,18.03,100,AR,1603215374
Aykhal,2027296,66,111.5,8.6,92,4.47,90,RU,1603215486
Banamba,2460546,13.55,-7.45,87.53,27,2.71,0,ML,1603215486
Hanumāngarh,1270407,29.58,74.32,75.22,17,2.98,0,IN,1603215487
Belaya Gora,2126785,68.53,146.42,5.05,92,1.83,20,RU,1603215487
Hinatuan,1711655,8.37,126.33,77.29,88,5.1,97,PH,1603215488
Heiligenhafen,2907589,54.37,10.98,51.01,87,8.05,100,DE,1603215488
Trincomalee,1226260,8.57,81.23,80.73,77,17.25,18,LK,1603215489
Ankazoabo,1072879,-22.28,44.52,79.09,28,11.81,0,MG,1603215489
Hokitika,2206894,-42.72,170.97,43.84,87,3.4,24,NZ,1603215490
Vestmannaeyjar,3412093,63.44,-20.27,37.4,69,8.05,30,IS,1603215490
Santa Isabel Rio Negro,3662489,-0.41,-65.02,92.89,51,2.82,75,BR,1603215490
Honningsvåg,779554,70.98,25.97,39.34,72,11.1,100,NO,1603215491
Saint-Louis,2246451,16.33,-15,102.2,21,2.24,62,SN,1603215491
Copiapó,3893656,-27.37,-70.33,62.6,67,12.75,40,CL,1603215378
Nioki,2311968,-2.72,17.68,73.87,94,3.96,99,CD,1603215492
Tsabong,932987,-26.02,22.4,77.92,17,15.55,0,BW,1603215492
Bakchar,1511057,57.02,82.07,37.35,96,4.68,84,RU,1603215492
Benguela,3351663,-12.58,13.41,75.33,77,6.6,67,AO,1603215493
Inverell,2162662,-29.78,151.12,54,90,1.01,8,AU,1603215493
Kulu,305742,39.1,33.08,58.28,68,17.18,23,TR,1603215493
Alakurtti,583472,66.97,30.35,29.89,97,4.14,95,RU,1603215389
Southampton,2637487,50.9,-1.4,61,82,8.05,20,GB,1603215325
Hambantota,1244926,6.12,81.12,79.7,82,17.27,0,LK,1603215494
Province of Groningen,2755249,53.25,6.75,55.4,87,11.41,20,NL,1603215494
Nizhniy Kuranakh,2019135,58.84,125.49,24.57,97,2.37,100,RU,1603215495
Muisne,3653967,0.6,-80.03,84.2,74,6.93,40,EC,1603215495
Tõrva,588204,58,25.93,34,92,2.24,100,EE,1603215495
