city_name,lat,lng,max_temp,hum,cloud,wind_speed,country_code,date
Porohy,48.69,24.26,37.4,93,0,5.3,UA,1603219784
Kloulklubed,7.04,134.26,75.2,94,90,8.05,PW,1603219784
Hobart,-42.88,147.33,53.6,81,90,2.57,AU,1603219209
Chui,-33.7,-53.46,55.24,82,100,15.64,UY,1603219784
Rikitea,-23.12,-134.97,73.33,79,0,14.65,PF,1603219145
Barrow,71.29,-156.79,24.8,92,75,6.93,US,1603219785
Bluff,-46.6,168.33,42.01,92,83,3,NZ,1603219365
Faanui,-16.48,-151.75,78.6,83,15,16.13,PF,1603219785
Puerto Ayora,-0.74,-90.35,80.6,69,40,23.04,EC,1603219221
Constitución,-35.33,-72.42,62.47,55,0,19.37,CL,1603219685
Kargopol',61.51,38.95,28.62,98,4,8.77,RU,1603219786
Cherskiy,68.75,161.3,19.45,96,90,5.55,RU,1603219322
Qaanaaq,77.48,-69.36,21.38,84,0,6.96,GL,1603219786
Dikson,73.51,80.55,21.45,96,100,5.37,RU,1603219786
Nikolskoye,59.7,30.79,36,80,75,4.47,RU,1603219787
Batticaloa,7.71,81.69,79.05,79,40,7.54,LK,1603219787
Tromsø,69.65,18.96,24.8,85,0,6.93,NO,1603219787
Itarema,-2.92,-39.92,83.12,64,42,20.87,BR,1603219513
Ilulissat,69.22,-51.1,42.8,56,75,13.87,GL,1603219787
Denpasar,-8.65,115.22,78.8,100,20,5.82,ID,1603219683
Tommot,58.96,126.29,25.57,97,100,4.29,RU,1603219788
Creel,27.75,-107.63,72.7,22,0,8.39,MX,1603219788
Aksarka,66.56,67.8,21.18,98,100,4,RU,1603219788
Srednekolymsk,67.45,153.68,17.53,97,98,4.47,RU,1603219788
Srandakan,-7.94,110.25,78.46,86,100,2.98,ID,1603219788
Rameswaram,9.28,79.3,83.05,81,73,16.98,IN,1603219789
Mataura,-46.19,168.86,42.01,92,73,3,NZ,1603219789
Albany,42.6,-73.97,66,76,100,0.56,US,1603219789
Meulaboh,4.14,96.13,77.52,84,43,3.83,ID,1603219672
Punta Arenas,-53.15,-70.92,48.2,45,75,14.99,CL,1603219271
Pedernales,18.04,-71.74,86,70,40,13.87,DO,1603219790
Vrangel',42.73,133.08,54,84,100,5.55,RU,1603219790
Hong Kong,22.29,114.16,73.99,68,82,1.99,HK,1603219514
Hearst,49.68,-83.67,39.51,64,0,2.98,CA,1603219790
Vardø,70.37,31.11,37.4,74,40,8.05,NO,1603219790
Upernavik,72.79,-56.15,33.28,86,100,6.85,GL,1603219790
Hermanus,-34.42,19.23,55.99,73,0,4,ZA,1603219791
La Palma,33.85,-118.05,75.99,64,20,5.79,US,1603219791
Broome,42.25,-75.83,59,100,90,6.93,US,1603219084
Jamestown,42.1,-79.24,50,100,90,6.93,US,1603219460
Samālkha,29.23,77.02,72.97,20,0,6.13,IN,1603219791
Mar del Plata,-38,-57.56,59,58,0,13.87,AR,1603219284
Port Lincoln,-34.73,135.87,56.77,86,5,9.84,AU,1603219791
Bredasdorp,-34.53,20.04,55.4,71,0,4.7,ZA,1603219792
Bethel,41.37,-73.41,66.99,82,90,4.7,US,1603219792
Paredon,16.03,-93.87,88.99,59,81,5.66,MX,1603219567
Nantucket,41.28,-70.1,62.6,82,90,5.82,US,1603219792
Shimanovsk,52,127.7,41.99,86,100,12.75,RU,1603219793
Copiapó,-27.37,-70.33,64.4,63,0,9.17,CL,1603219793
Mandalgovi,45.76,106.27,20.48,81,100,10.02,MN,1603219529
Kapaa,22.08,-159.32,77,88,75,10.29,US,1603219793
Callaway,30.15,-85.57,87.01,58,20,11.41,US,1603219793
Conway,35.09,-92.44,78.8,69,90,8.05,US,1603219533
Ushuaia,-54.8,-68.3,44.6,56,40,19.46,AR,1603219360
Solnechnyy,50.72,136.63,34.59,84,99,6.89,RU,1603219514
Cayenne,4.93,-52.33,89.6,55,100,18.34,GF,1603219325
Cap Malheureux,-19.98,57.61,75,71,1,7,MU,1603219794
Cidreira,-30.18,-50.21,72.03,80,16,9.8,BR,1603219794
Arraial do Cabo,-22.97,-42.03,78.8,69,0,16.11,BR,1603219456
Tuktoyaktuk,69.45,-133.04,23,85,90,16.11,CA,1603219795
Bato,13.35,123.37,77.77,90,100,6.53,PH,1603219795
Asău,46.43,26.4,41,93,0,2.24,RO,1603219795
New Norfolk,-42.78,147.06,51.01,72,100,1.92,AU,1603219485
Busselton,-33.65,115.33,55.99,64,0,8.01,AU,1603219148
Sterling,39.01,-77.43,77,56,75,4.7,US,1603219659
Tasiilaq,65.61,-37.64,32,94,75,19.46,GL,1603219364
Vaini,-21.2,-175.2,69.8,77,40,6.93,TO,1603219796
Hamilton,39.18,-84.53,53.6,93,90,4.7,US,1603219501
Carnarvon,-24.87,113.63,68,77,40,19.46,AU,1603219205
Salalah,17.02,54.09,82.4,54,22,5.82,OM,1603219797
Bulawayo,-20.15,28.58,77.32,17,0,9.55,ZW,1603219798
Tessalit,20.2,1.01,89.31,12,0,7.18,ML,1603219798
Castro,-24.79,-50.01,79.97,48,16,1.7,BR,1603219542
Tongliao,43.61,122.27,56.26,42,73,15.79,CN,1603219798
Kaitangata,-46.28,169.85,48.99,85,100,1.99,NZ,1603219799
Touba,8.28,-7.68,75.49,81,55,1.92,CI,1603219799
Hilo,19.73,-155.09,79,60,1,6.93,US,1603219794
Vuktyl,63.86,57.31,28.92,99,92,4.18,RU,1603219799
Samarai,-10.62,150.67,78.69,86,100,8.81,PG,1603219554
Soyo,-6.13,12.37,77.58,79,50,6.71,AO,1603219800
Maceió,-9.67,-35.74,82.4,65,40,11.41,BR,1603219572
Butaritari,3.07,172.79,81.73,76,100,12.15,KI,1603219800
Touros,-5.2,-35.46,86,58,40,14.99,BR,1603219222
Nizwá,22.93,57.53,69.6,24,0,0.04,OM,1603219734
Yilan,24.76,121.75,78.01,99,100,1.01,TW,1603219800
Souillac,-20.52,57.52,75.2,73,20,10.29,MU,1603219800
Ḩasanābād,36.55,61.05,57.2,35,0,2.24,IR,1603219801
Lavrentiya,65.58,-171,36.86,91,100,13.22,RU,1603219801
Palmas Bellas,9.23,-80.09,86,79,40,14.99,PA,1603219801
Hasaki,35.73,140.83,54,93,20,6.93,JP,1603219712
Escárcega,18.61,-90.75,85.03,66,25,6.42,MX,1603219566
Jakar,27.55,90.75,45.07,73,12,3.27,BT,1603219802
Anloga,5.79,0.9,80.6,88,20,12.75,GH,1603219802
Balkhash,46.84,74.98,49.86,41,0,10.31,KZ,1603219802
Bat Khela,34.62,71.97,66.36,33,0,5.93,PK,1603219803
Yangi Marg`ilon,40.43,71.72,57.2,50,0,6.93,UZ,1603219803
Falāvarjān,32.56,51.51,57.2,11,0,6.93,IR,1603219804
Namatanai,-3.67,152.43,78.62,79,64,2.44,PG,1603219804
Norman Wells,65.28,-126.83,19.4,85,75,9.17,CA,1603219222
Atuona,-9.8,-139.03,77.47,75,0,19.04,PF,1603219804
Dom Pedrito,-30.98,-54.67,71.19,72,60,18.39,BR,1603219805
Raudeberg,61.99,5.14,44.6,87,75,17.22,NO,1603219805
Severo-Kuril'sk,50.68,156.12,40.42,71,77,25.59,RU,1603219375
Boa Vista,2.82,-60.67,93.2,44,75,11.41,BR,1603219784
Três Lagoas,-20.75,-51.68,87.46,51,80,10.2,BR,1603219806
Torbay,47.67,-52.73,60.8,67,75,13.87,CA,1603219360
Churapcha,62,132.43,13.87,96,100,3.91,RU,1603219806
‘Āhuimanu,21.44,-157.84,82.4,78,20,9.8,US,1603219807
Ancud,-41.87,-73.82,53.6,52,0,10.29,CL,1603219627
São Luís de Montes Belos,-16.52,-50.37,80.87,60,100,2.37,BR,1603219807
Nacala,-14.54,40.67,75.9,82,0,3.78,MZ,1603219807
Mahibadhoo,3.78,72.97,82.8,79,100,11.97,MV,1603219576
Biltine,14.53,20.92,87.49,13,0,8.68,TD,1603219808
Pevek,69.7,170.31,30.76,95,100,19.86,RU,1603219808
Saldanha,-33.01,17.94,59,67,0,12.75,ZA,1603219808
Forsytheganj,52.63,29.73,39.45,85,99,5.12,BY,1603219808
Khatanga,71.97,102.5,6.96,95,83,8.01,RU,1603219808
Big Rapids,43.7,-85.48,46.99,70,75,6.93,US,1603219808
Ponta do Sol,32.67,-17.1,71.6,53,20,2.24,PT,1603219478
Praia,14.92,-23.51,87.8,62,100,13.87,CV,1603219859
Havre-St-Pierre,50.23,-63.6,44.6,93,90,9.17,CA,1603219445
Cañazas,8.32,-81.22,79.86,84,99,9.71,PA,1603219809
Sitka,57.05,-135.33,42.8,81,90,3.36,US,1603219105
Fortuna,40.6,-124.16,62.01,77,1,8.05,US,1603219809
Acapulco de Juárez,16.86,-99.89,86,74,20,6.93,MX,1603219331
Sola,-13.88,167.55,77,94,90,5.82,VU,1603219810
Kramat,-8.13,113.45,74.93,80,21,2.82,ID,1603219810
Paris,48.85,2.35,57.99,93,90,11.41,FR,1603219385
Banfora,10.63,-4.77,76.55,75,100,7.61,BF,1603219810
Neftçala,39.37,49.25,64.26,74,38,15.73,AZ,1603219810
Roald,62.58,6.13,41,86,90,12.75,NO,1603219811
Talara,-4.58,-81.27,77,69,70,14.99,PE,1603219377
North Bend,43.41,-124.22,66.99,77,40,6.08,US,1603219811
Vachi,42.07,47.22,43.95,82,92,1.23,RU,1603219811
Benguela,-12.58,13.41,74.75,79,100,5.14,AO,1603219811
Kerrville,30.05,-99.14,82.99,58,75,14.99,US,1603219812
Auki,-8.77,160.7,77.81,83,100,5.55,SB,1603219812
Nova Olímpia,-14.8,-57.29,91.58,41,72,8.34,BR,1603219812
Mossamedes,-15.2,12.15,69.53,80,90,4.09,AO,1603219387
Riyadh,24.69,46.72,73.4,23,0,2.24,SA,1603219599
Codrington,-38.27,141.97,44.62,90,82,3.44,AU,1603219813
Cape Town,-33.93,18.42,57.99,67,0,13.87,ZA,1603219473
Pringsewu,-5.36,104.97,74.5,91,100,4.21,ID,1603219813
Władysławowo,54.79,18.4,48.99,81,100,11.41,PL,1603219813
Bambous Virieux,-20.34,57.76,75.2,73,20,10.29,MU,1603219542
Gravdal,68.12,13.5,37.4,74,40,6.93,NO,1603219814
Marawi,8,124.29,75,95,100,5.99,PH,1603219612
Plettenberg Bay,-34.05,23.37,56.14,74,0,4.59,ZA,1603219814
Borovoy,55.43,86.08,35.6,80,40,4.47,RU,1603219814
Knysna,-34.04,23.05,57.2,76,75,3.36,ZA,1603219815
Sheopur,25.67,76.7,77.23,22,0,7.52,IN,1603219815
Maniitsoq,65.42,-52.9,35.51,91,100,18.59,GL,1603219552
Port Alfred,-33.59,26.89,60.66,68,0,15.86,ZA,1603219306
Caravelas,-17.71,-39.25,77.5,79,100,8.16,BR,1603219488
Whitehorse,60.72,-135.05,19.4,67,75,6.93,CA,1603219545
Żurrieq,35.83,14.47,66.99,77,20,4.7,MT,1603219815
São Filipe,14.9,-24.5,85.98,55,100,10.67,CV,1603219548
Avarua,-21.21,-159.78,75.2,94,36,1.12,CK,1603219816
Qadirpur Ran,30.29,71.67,78.8,54,0,7.18,PK,1603219816
Marsá Maţrūḩ,31.35,27.25,75.13,70,15,8.12,EG,1603219551
Kulhudhuffushi,6.62,73.07,81.97,80,5,10.58,MV,1603219575
Shalya,57.25,58.73,33.01,95,0,6.04,RU,1603219817
Beruwala,6.48,79.98,79.45,85,1,9.26,LK,1603219817
Geraldton,-28.77,114.6,66.2,72,90,16.11,AU,1603219810
Thaton,16.92,97.37,74.5,93,100,4.97,MM,1603219817
Mayumba,-3.43,10.66,77.56,87,100,7.2,GA,1603219582
Ermelo,-26.53,29.98,62.56,78,88,11.7,ZA,1603219818
Saint-Max,48.7,6.21,62.6,67,100,6.93,FR,1603219818
Hithadhoo,-0.6,73.08,82.85,78,99,13.06,MV,1603219818
San Cristobal,7.77,-72.22,87.8,58,40,13.87,VE,1603219399
Prince Rupert,54.32,-130.32,42.8,93,90,6.93,CA,1603219640
Imeni Poliny Osipenko,52.42,136.49,30.78,94,100,9.71,RU,1603219819
Aliwal North,-30.69,26.71,58.3,48,0,19.6,ZA,1603219819
Xining,36.62,101.77,37.29,65,0,0.51,CN,1603219522
Tuatapere,-46.13,167.68,43,93,29,3,NZ,1603219819
Dunedin,-45.87,170.5,48.99,85,100,1.01,NZ,1603219480
Saint-Pierre,-21.34,55.48,72,78,7,4.7,RE,1603219492
Sinnamary,5.38,-52.95,85.21,64,100,14.41,GF,1603219819
Ribeira Grande,38.52,-28.7,66.2,59,40,5.82,PT,1603219492
Jiuquan,39.74,98.52,40.57,56,0,1.3,CN,1603219820
Baghlan,36.13,68.71,50.97,56,0,1.52,AF,1603219820
Uray,60.12,64.78,34.99,95,99,7.96,RU,1603219820
Smithers,54.78,-127.17,30.2,100,75,2.24,CA,1603219569
Matadi,-5.82,13.45,81.16,66,41,7.78,CD,1603219821
Tiksi,71.69,128.87,10.74,93,100,13.4,RU,1603219389
Yar-Sale,66.83,70.83,24.69,99,100,2.68,RU,1603219528
Naze,28.37,129.48,73.4,94,75,9.17,JP,1603219553
Rafsanjān,30.41,55.99,52,37,0,3.06,IR,1603219821
Yellowknife,62.46,-114.35,27,73,75,3.36,CA,1603219821
Upington,-28.45,21.26,66.2,12,0,5.82,ZA,1603219821
Clyde River,70.47,-68.59,30.2,74,1,12.75,CA,1603219497
Hervey Bay,-25.3,152.85,68,77,90,9.17,AU,1603219822
Pisco,-13.7,-76.22,68,77,40,10.29,PE,1603219507
Saint-Philippe,-21.36,55.77,72,78,33,3.36,RE,1603219822
Lüderitz,-26.65,15.16,69.1,37,0,28.48,NA,1603219822
Egvekinot,66.32,-179.17,34.16,100,100,7.16,RU,1603219208
Mananjary,-21.22,48.33,71.42,86,11,7.14,MG,1603219823
Mahébourg,-20.41,57.7,75.2,73,20,10.29,MU,1603219361
Am Timan,11.03,20.28,79.59,35,0,3,TD,1603219823
Novoagansk,61.94,76.66,31.37,99,100,6.73,RU,1603219823
Longyearbyen,78.22,15.64,23,79,2,5.82,SJ,1603219823
Djibouti,11.5,42.5,86,58,1,8.57,DJ,1603219823
Lebu,-37.62,-73.65,53.8,63,0,19.82,CL,1603219823
Nuuk,64.18,-51.72,37.4,86,75,13.87,GL,1603219824
Kruisfontein,-34,24.73,57,81,0,3,ZA,1603219824
Mercedes,-34.65,-59.43,62.01,54,100,5.01,AR,1603219824
Vila Franca do Campo,37.72,-25.43,62.6,63,40,16.11,PT,1603219824
Warmbad,-28.45,18.73,64.94,24,0,7.7,NA,1603219824
Coahuayana Viejo,18.73,-103.68,80.6,78,20,5.37,MX,1603219512
Verkhnevilyuysk,63.45,120.32,16.34,96,34,3.71,RU,1603219368
Ishigaki,24.34,124.16,80.73,82,100,23.49,JP,1603219825
Nanortalik,60.14,-45.24,37.69,86,100,4.76,GL,1603219825
Fukuechō,32.69,128.84,70.05,61,22,8.68,JP,1603219825
Tripoli,32.88,13.19,70.9,51,9,8.16,LY,1603219649
Flin Flon,54.77,-101.86,30.2,50,90,3.36,CA,1603219491
Kapoeta,4.77,33.59,82.72,58,83,1.45,SS,1603219825
Sistranda,63.73,8.83,39.2,69,100,14.99,NO,1603219117
Nizhniy Kuranakh,58.84,125.49,24.91,97,100,3.44,RU,1603219826
Moose Factory,51.26,-80.61,41,48,75,8.05,CA,1603219591
Harper,4.38,-7.72,77.94,81,90,7.27,LR,1603219826
Māndleshwar,22.18,75.67,80.65,73,0,0.81,IN,1603219826
Jaraguá do Sul,-26.49,-49.07,80.01,83,1,1.99,BR,1603219826
Henties Bay,-22.12,14.28,59,84,0,6.4,NA,1603219283
Saint Paul Harbor,57.79,-152.41,42.8,56,1,9.17,US,1603219827
Requena,39.49,-1.1,61,83,72,10,ES,1603219380
Ürümqi,43.8,87.6,46.4,45,0,4.47,CN,1603219568
Şebinkarahisar,40.29,38.42,48.51,89,53,2.75,TR,1603219827
Dingle,11,122.67,76.17,90,100,7.94,PH,1603219827
Goderich,43.75,-81.72,52,72,100,4.32,CA,1603219554
San Patricio,28.02,-97.52,89.6,55,40,13.87,US,1603219322
Bengkulu,-3.8,102.27,77.05,80,100,3.49,ID,1603219828
Waipawa,-41.41,175.52,51.8,87,100,6.93,NZ,1603219828
Cabo San Lucas,22.89,-109.91,95,52,5,6.93,MX,1603219202
Port-Gentil,-0.72,8.78,77,94,75,11.41,GA,1603219828
Krasnosel'kup,65.7,82.47,23.34,98,99,8.99,RU,1603219829
Thinadhoo,0.53,72.93,82.76,77,100,11.95,MV,1603219575
Leningradskiy,69.38,178.42,33.26,88,100,11.34,RU,1603219829
Mandan,46.83,-100.89,35.6,100,90,6.93,US,1603219829
Necochea,-38.55,-58.74,55.99,82,90,8.99,AR,1603219477
Savonlinna,61.87,28.88,32,89,90,5.82,FI,1603219829
Katsuura,35.13,140.3,60.8,72,40,13.87,JP,1603219829
Kholtoson,50.3,103.31,24.17,76,100,2.82,RU,1603219584
Kavieng,-2.57,150.8,81.14,80,100,11.95,PG,1603219525
Saskylakh,71.92,114.08,20.7,97,98,7.27,RU,1603219830
Bathsheba,13.22,-59.52,87.8,66,75,13.87,BB,1603219830
East London,-33.02,27.91,60.8,77,20,13.87,ZA,1603219490
Thompson,55.74,-97.86,30.2,63,90,3.36,CA,1603219830
Lac du Bonnet,50.25,-96.06,36,98,100,10,CA,1603219831
Tinskoy,56.15,96.92,33.48,94,100,10.18,RU,1603219831
Arrondissement de Pontivy,48,-3,60.01,93,75,12.75,FR,1603219831
Rabaul,-4.2,152.17,79.59,78,70,5.06,PG,1603219831
Baykit,61.67,96.37,23.13,96,97,1.05,RU,1603219831
Ketchikan,55.34,-131.65,42.8,100,40,3.36,US,1603219831
Xai-Xai,-25.05,33.64,74.41,81,55,25.39,MZ,1603219384
Ahipara,-35.17,173.17,58.91,77,100,4.68,NZ,1603219832
Øksfjord,70.24,22.35,33.8,86,20,6.93,NO,1603219832
Narsaq,60.92,-46.05,35.6,93,75,2.24,GL,1603219832
Mayo,38.89,-76.51,73.99,77,40,8.05,US,1603219632
Inhambane,-23.86,35.38,74.39,87,0,10.74,MZ,1603219832
Shiyan,32.65,110.78,55.58,74,98,6.33,CN,1603219833
Pedasí,7.53,-80.03,80.11,84,80,19.89,PA,1603219833
Lerik,38.77,48.41,66.2,72,90,4.7,AZ,1603219833
Arman',59.7,150.17,27.43,83,66,4.99,RU,1603219451
São João da Barra,-21.64,-41.05,77,69,75,16.11,BR,1603219556
Pemangkat,1.17,108.97,78.87,86,100,3.15,ID,1603219833
Barranca,-10.75,-77.77,67.95,68,16,7.31,PE,1603219834
Kärdla,59,22.75,39.99,84,100,3,EE,1603219834
Belle Fourche,44.67,-103.85,42.01,86,97,11.41,US,1603219748
Blagoyevo,63.37,47.92,27.14,99,76,1.77,RU,1603219568
Luleå,65.58,22.15,23,100,75,4.7,SE,1603219834
Berdigestyakh,62.1,126.7,21,98,100,1.9,RU,1603219834
Tilichiki,60.47,166.1,39.15,99,100,14.25,RU,1603219835
Shache,38.42,77.24,40.96,66,0,0.96,CN,1603219835
Chokurdakh,70.63,147.92,13.87,97,91,2.24,RU,1603219835
Prizren,42.21,20.74,46.99,65,0,1.95,XK,1603219835
Aklavik,68.22,-135.01,23,85,90,14.99,CA,1603219835
Cheremnoye,53.17,83.21,44.6,36,94,13.42,RU,1603219836
Bonavista,48.65,-53.11,54.68,82,100,15.64,CA,1603219576
Aquiraz,-3.9,-38.39,86,51,20,19.46,BR,1603219836
Liverpool,53.41,-2.98,59,77,40,16.11,GB,1603219565
Wuwei,37.93,102.64,48,37,0,4.76,CN,1603219836
Caniço,32.63,-16.85,71.6,53,20,2.24,PT,1603219836
Khovd,48.01,91.64,29.08,82,40,1.48,MN,1603219837
Samur,41.83,48.49,54.32,79,3,2.57,RU,1603219837
Pacific Grove,36.62,-121.92,66.2,82,40,4.23,US,1603219767
Sijunjung,-0.69,100.95,72.34,88,100,1.45,ID,1603219837
Miyako,39.64,141.95,50.27,68,0,4.76,JP,1603219837
Shitanjing,39.23,106.34,38.68,52,0,6.06,CN,1603219838
Lorengau,-2.02,147.27,81.12,69,100,2.3,PG,1603219539
Cockburn Town,21.46,-71.14,86,58,40,8.05,TC,1603219455
Pochutla,15.74,-96.47,91,59,40,11.41,MX,1603219620
Chikwawa,-16.03,34.8,87.06,34,17,2.17,MW,1603219838
Dhidhdhoo,6.88,73.1,81.97,80,5,10.76,MV,1603219554
San Jose,37.34,-121.89,79,56,1,2.95,US,1603219393
Chiang Khong,20.26,100.4,69.8,100,90,1.7,TH,1603219839
Balotra,25.83,72.23,87.17,52,0,7.92,IN,1603219839
Dhārchula,29.85,80.53,57.4,50,0,3.83,IN,1603219839
Lokoja,7.8,6.74,79.32,80,41,3.06,NG,1603219839
Isla Mujeres,21.23,-86.73,86,70,75,11.41,MX,1603219839
Mount Isa,-20.73,139.5,80.6,26,40,8.05,AU,1603219499
Mahon,39.89,4.27,68,88,20,13.87,ES,1603219840
Alice Springs,-23.7,133.88,69.8,77,0,5.82,AU,1603219546
Foça,38.67,26.76,68,60,75,10.29,TR,1603219840
Atambua,-9.11,124.89,73.94,78,100,1.74,ID,1603219840
Opuwo,-18.06,13.84,74.48,23,0,8.3,NA,1603219841
Guerrero Negro,27.98,-114.06,79.5,58,0,12.59,MX,1603219579
Ust-Nera,64.57,143.2,4.82,87,81,4.63,RU,1603219841
Whakatane,-37.96,176.99,57,99,100,3,NZ,1603219841
Mahajanga,-15.72,46.32,78.8,74,20,3.36,MG,1603219364
Fort Frances,48.6,-93.4,33.01,72,90,9.17,CA,1603219842
Watsa,3.04,29.54,65.55,98,100,1.77,CD,1603219533
Sobolevo,54.43,31.9,33.98,90,70,4.34,RU,1603219560
Kahului,20.89,-156.47,80.6,57,20,4.7,US,1603219746
Airai,-8.93,125.41,60.4,74,100,1.34,TL,1603219374
Bay Roberts,47.6,-53.26,60.8,67,75,13.87,CA,1603219842
Isangel,-19.55,169.27,69.8,94,75,10.27,VU,1603219193
Onalaska,43.88,-91.24,37.99,80,90,9.17,US,1603219660
Rosarito,32.33,-117.03,71.6,68,5,3.36,MX,1603219737
Bossangoa,6.49,17.46,76.48,74,0,1.19,CF,1603219843
Nísia Floresta,-6.09,-35.21,86,58,40,14.99,BR,1603219690
Crotone,39.09,17.12,57.2,58,0,5.82,IT,1603219843
Taoudenni,22.68,-3.98,85.35,15,0,9.26,ML,1603219502
Hambantota,6.12,81.12,79.39,82,1,16.64,LK,1603219522
Zarichne,51.81,26.13,42.98,81,96,5.97,UA,1603219844
Comodoro Rivadavia,-45.87,-67.5,53.6,56,0,17.22,AR,1603219248
Alquízar,22.81,-82.58,82.4,78,75,6.93,CU,1603219844
Klaksvík,62.23,-6.59,37.4,86,65,2.24,FO,1603219736
Khandyga,62.67,135.6,15.93,97,96,3.85,RU,1603219527
Saint George,37.1,-113.58,68,16,1,3.36,US,1603219401
High Level,58.52,-117.14,17.6,92,40,4.36,CA,1603219220
Abu Kamal,34.45,40.92,70.57,36,0,3.22,SY,1603219845
Fīrozpur Jhirka,27.8,76.95,76.19,18,0,2.8,IN,1603219845
Burnie,-41.07,145.92,46.99,79,100,4,AU,1603219845
Westport,41.14,-73.36,66.99,82,90,4.7,US,1603219352
Mpulungu,-8.76,31.11,79.39,53,100,0.54,ZM,1603219846
Oranjemund,-28.55,16.43,59.76,76,0,24.52,NA,1603219846
Talaya,61.38,152.75,13.62,92,50,0.81,RU,1603219846
Port Blair,11.67,92.75,81.09,84,83,14,IN,1603219585
Corn Island,12.17,-83.04,81.82,79,43,7.96,NI,1603219846
Dandong,40.13,124.39,54.66,81,100,6.69,CN,1603219846
Lewisburg,35.45,-86.79,78.01,60,90,9.17,US,1603219847
Puerto Escondido,15.85,-97.07,86.04,65,100,6.11,MX,1603219568
Idaho Falls,43.47,-112.03,54,50,90,16.11,US,1603219847
Sosnogorsk,63.6,53.88,29.23,99,100,4.54,RU,1603219847
Cardston,49.2,-113.3,33.01,74,75,9.17,CA,1603219847
Dalbandin,28.89,64.41,56.61,29,0,5.28,PK,1603219847
Lagoa,39.05,-27.98,63.61,68,13,27.69,PT,1603219848
Alferrarede,39.48,-8.17,62.01,96,100,3,PT,1603219848
Te Anau,-45.42,167.72,36.93,83,22,1.19,NZ,1603219480
Amapá,1,-52,93.58,36,99,4.07,BR,1603219848
Nishihara,26.18,127.76,80.6,74,75,17.22,JP,1603219848
Nagorsk,59.32,50.81,33.44,94,97,3.74,RU,1603219849
Haines Junction,60.75,-137.51,26.92,86,100,2.35,CA,1603219849
Shingū,33.73,135.98,58.66,77,44,7.4,JP,1603219733
Majene,-3.54,118.97,79.43,78,100,7.65,ID,1603219850
Khāsh,28.22,61.22,46.74,44,0,3.36,IR,1603219850
Ambon City,-3.7,128.18,82.99,88,68,1.01,ID,1603219612
High Prairie,55.43,-116.49,30.38,81,100,2.93,CA,1603219814
Kiryat Gat,31.61,34.76,79,100,0,5.28,IL,1603219850
Monção,42.08,-8.48,59,93,90,2.24,PT,1603219850
Sechura,-5.56,-80.82,74.64,56,17,16.67,PE,1603219557
Oberá,-27.49,-55.12,89.35,35,59,4.74,AR,1603219851
The Valley,18.22,-63.06,86,74,20,9.17,AI,1603219851
Hay River,60.82,-115.8,23,92,75,12.75,CA,1603219851
Umeå,63.83,20.26,32,97,75,3.36,SE,1603219851
Lohārdagā,23.43,84.68,73.4,83,25,1.77,IN,1603219851
Abrau-Dyurso,44.69,37.59,42.8,81,0,8.12,RU,1603219851
Sioux Lookout,50.1,-91.92,33.8,50,75,6.93,CA,1603219327
Havøysund,71,24.66,30.2,92,40,5.82,NO,1603219852
Sarkand,45.41,79.92,56.03,28,0,4.34,KZ,1603219379
George Town,5.41,100.34,82.4,94,20,3.36,MY,1603219861
Skibbereen,51.55,-9.27,51.8,93,40,17.22,IE,1603219852
Departamento de Maldonado,-34.67,-54.92,55.4,71,100,17.22,UY,1603219826
Bayir,37.27,28.22,66.2,72,75,6.93,TR,1603219852
Matara,5.95,80.54,78.03,88,1,9.13,LK,1603219379
Agirish,61.92,63.02,30.56,98,94,4.63,RU,1603219853
Anadyr,64.75,177.48,41,86,75,20.13,RU,1603219853
Khanbari,27.37,87.2,65.66,65,7,1.79,NP,1603219853
Genhe,50.78,121.52,31.6,93,100,2.19,CN,1603219853
Bandarbeyla,9.49,50.81,79.36,72,0,3.74,SO,1603219477
Lebyazh'ye,55.27,66.49,46.6,74,100,6.51,RU,1603219853
Mokhsogollokh,61.47,128.92,19.81,98,100,2.3,RU,1603219854
Wilmington,34.23,-77.94,80.6,69,75,3.36,US,1603219057
Stokmarknes,68.56,14.91,39.2,64,60,10.29,NO,1603219854
Coquimbo,-29.95,-71.34,60.8,67,0,18.34,CL,1603219854
Hofn,64.25,-15.21,37.17,73,0,5.93,IS,1603219854
Utete,-7.99,38.76,75.27,79,0,6.33,TZ,1603219855
Killybegs,54.63,-8.45,55.4,87,40,11.41,IE,1603219855
Gawler,-34.6,138.73,57.99,73,91,7,AU,1603219855
Santa Isabel Rio Negro,-0.41,-65.02,92.03,52,96,2.66,BR,1603219855
Port Elizabeth,-33.92,25.57,59,77,20,5.82,ZA,1603219492
San Isidro,-12.12,-77.05,68,68,75,9.17,PE,1603219855
Buin,-33.73,-70.75,82,22,0,8.05,CL,1603219856
Beihai,21.48,109.1,66.34,75,7,26.49,CN,1603219856
Siilinjärvi,63.08,27.67,30.2,86,90,6.93,FI,1603219856
Olafsvik,64.89,-23.71,41.7,90,100,15.37,IS,1603219856
Ballaghaderreen,53.9,-8.58,53.01,99,85,17,IE,1603219856
Skjervøy,70.03,20.97,33.8,86,20,6.93,NO,1603219471
Uttaradit,17.67,100.5,67.57,98,100,2.39,TH,1603219857
Kununurra,-15.77,128.73,78.8,88,0,2.73,AU,1603219571
Laguna,38.42,-121.42,80.01,29,5,3.36,US,1603219857
Vao,-22.67,167.48,72.68,82,0,17.38,NC,1603219857
Marsh Harbour,26.54,-77.06,81.46,76,100,21.45,BS,1603219857
Sibolga,1.74,98.78,77.54,81,24,2.95,ID,1603219857
Nemuro,43.32,145.57,50.04,69,31,1.25,JP,1603219534
Wangaratta,-36.37,146.33,46.99,100,40,2.89,AU,1603219858
Nushki,29.55,66.02,49.84,42,0,1.77,PK,1603219858
Bentonville,36.37,-94.21,62.6,100,90,6.93,US,1603219607
Pallapatti,11.66,78.13,73.85,92,100,2.33,IN,1603219858
Novopokrovka,49.84,36.55,41,75,0,8.95,UA,1603219858
Baker City,44.77,-117.83,53.6,54,90,4.7,US,1603219859
Iquitos,-3.75,-73.25,89.6,55,40,16.11,PE,1603219859
Quelimane,-17.88,36.89,78.42,75,0,9.69,MZ,1603219523
Viedma,-40.81,-63,73,23,0,1.99,AR,1603219333
Ban Dung,17.7,103.26,72,89,100,9.04,TH,1603219859
Esperance,-33.87,121.9,59,100,90,11.41,AU,1603219859
Huarmey,-10.07,-78.15,69.67,65,7,9.06,PE,1603219860
Casper,42.87,-106.31,48.99,61,1,5.82,US,1603219860
Maturin,9.75,-63.18,90.41,56,18,3.62,VE,1603219860
Lamu,-2.27,40.9,80.6,74,1,6.93,KE,1603219479
Puerto del Rosario,28.5,-13.86,80.6,69,40,8.05,ES,1603219499
Jalu,29.03,21.55,73.94,54,0,12.59,LY,1603219507
Deputatsky,69.3,139.9,9.43,97,100,2.64,RU,1603219861
Kataysk,56.29,62.58,37.76,80,0,7.61,RU,1603219861
Alofi,-19.06,-169.92,73.4,88,100,12.75,NU,1603219861
Pecos,31.42,-103.49,82.4,28,1,6.93,US,1603219492
Peniche,39.36,-9.38,64,91,100,15.99,PT,1603219386
Atar,20.52,-13.05,92.88,20,0,8.14,MR,1603219619
Alta Floresta,-9.88,-56.09,96.31,33,91,1.12,BR,1603219543
Waingapu,-9.66,120.26,78.98,77,98,2.3,ID,1603219862
Voyvozh,62.89,54.96,27.45,99,99,3.15,RU,1603219862
Baghdad,33.34,44.4,78.69,19,0,9.66,IQ,1603219852
Chudovo,59.12,31.68,31.73,97,89,4.59,RU,1603219863
Half Moon Bay,37.46,-122.43,78.01,77,5,3.36,US,1603219630
Tadine,-21.55,167.88,72.63,83,0,11.54,NC,1603219863
Porto-Novo,6.5,2.6,80.6,88,40,11.41,BJ,1603219752
Quanzhou,24.91,118.59,75.2,60,75,4.47,CN,1603219863
Kaduqli,11.02,29.72,84.99,41,72,2.64,SD,1603219864
Buala,-8.14,159.59,80.76,76,96,5.19,SB,1603219864
Uruana,-15.5,-49.69,85.12,48,60,6.02,BR,1603219864
Kinablangan,7.69,126.55,79.21,77,100,5.26,PH,1603219864
Najrān,17.49,44.13,71.6,26,0,4.7,SA,1603219864
Flinders,-34.58,150.86,61,87,7,1.01,AU,1603219385
Huilong,31.81,121.66,66,86,100,3.47,CN,1603219865
Eyl,7.98,49.82,80.78,75,0,8.79,SO,1603219535
Labuhan,-6.88,112.21,81.03,79,21,4.83,ID,1603219200
Vanavara,60.34,102.28,22.05,98,81,3.67,RU,1603219520
Provideniya,64.38,-173.3,40.35,95,100,14.76,RU,1603219155
Berekum,7.45,-2.58,73.81,94,100,1.45,GH,1603219865
Belmopan,17.25,-88.77,87.01,55,82,1.01,BZ,1603219865
Nago,26.59,127.98,78.8,74,40,13.87,JP,1603219866
Broken Hill,-31.95,141.43,62.6,39,9,6.13,AU,1603219866
Amahai,-3.33,128.92,82.99,88,76,1.25,ID,1603219866
Vorukh,39.85,70.58,52.59,38,0,5.03,TJ,1603219866
Nortelândia,-14.45,-56.8,84.22,60,84,10.36,BR,1603219866
Polis,35.04,32.43,75.2,69,20,12.75,CY,1603219867
Çayeli,41.09,40.73,61.16,78,100,1.36,TR,1603219867
Staryy Nadym,65.61,72.68,25.18,98,100,6.49,RU,1603219568
Trogir,43.51,16.25,60.8,63,0,13.87,HR,1603219867
Martil,35.62,-5.28,68,82,75,1.12,MA,1603219868
Takoradze,4.88,-1.76,77.92,86,100,10.11,GH,1603219868
Okha,53.57,142.95,31.12,90,0,9.69,RU,1603219868
Talnakh,69.49,88.4,6.8,84,75,4.47,RU,1603219212
Kudahuvadhoo,2.67,72.89,82.26,79,100,12.97,MV,1603219868
Santa Ana,33.75,-117.87,75,60,40,5.82,US,1603219868
Saint Anthony,45.02,-93.22,32,92,90,4.7,US,1603219522
Kaeo,-35.1,173.78,53.01,95,100,1.9,NZ,1603219529
Bulalacao,12.33,121.34,80.4,83,100,16.37,PH,1603219869
Strezhevoy,60.73,77.59,33.8,100,90,8.95,RU,1603219869
Onega,63.91,38.14,30.36,96,26,7,RU,1603219511
Araouane,18.9,-3.53,91.26,12,0,6.55,ML,1603219869
Talgar,43.3,77.24,51.8,32,0,6.71,KZ,1603219869
Bahía Blanca,-38.72,-62.27,70.47,23,93,9.19,AR,1603219593
Namuac,18.61,121.17,79.7,89,100,17.13,PH,1603219870
Kourou,5.16,-52.65,89.6,59,100,16.11,GF,1603219870
Magadan,59.57,150.8,28.4,84,27,3.62,RU,1603219596
Søvik,65.93,12.47,35.6,51,0,23.04,NO,1603219870
Udachny,66.42,112.4,8.6,92,90,4.47,RU,1603219870
Sajanan,37.06,9.24,73.4,40,0,5.82,TN,1603219871
Esna,25.29,32.55,80.89,19,0,4.16,EG,1603219871
Umluj,25.02,37.27,82.49,48,0,5.55,SA,1603219871
Tsimmerbude,54.67,20.13,46.4,87,100,8.95,RU,1603219632
Sławno,54.36,16.68,49.77,77,100,9.66,PL,1603219871
Umarkhed,19.6,77.7,73.9,86,100,0.56,IN,1603219871
Lompoc,34.64,-120.46,60.8,93,90,7.7,US,1603219871
Port Hardy,50.7,-127.42,50,87,75,5.82,CA,1603219327
Ol'ga,43.74,135.29,42.98,76,0,1.57,RU,1603219872
Portales,34.19,-103.33,80.6,31,1,10.29,US,1603219872
Lashio,22.93,97.75,65.82,99,99,0.83,MM,1603219872
Hobyo,5.35,48.53,80.22,81,0,17.4,SO,1603219637
Ţahţā,26.77,31.5,80.8,22,0,6.06,EG,1603219872
Ishcherskaya,43.72,45.13,57.2,62,75,4.47,RU,1603219872
Parrita,9.52,-84.32,78.8,61,40,6.93,CR,1603219873
Marzuq,14.4,46.47,70.7,23,2,1.86,YE,1603219873
Macamic,48.75,-79,37.4,74,75,6.93,CA,1603219873
Rafaela,-31.25,-61.49,64,85,100,3,AR,1603219796
São Miguel dos Campos,-9.78,-36.09,82.4,65,40,11.41,BR,1603219873
Bruneck,46.8,11.94,42.01,75,5,1.54,IT,1603219874
Changji,44.02,87.32,46.4,45,0,4.47,CN,1603219874
Bima,-8.47,118.72,77.7,82,20,3.4,ID,1603219874
Birao,10.28,22.79,79.65,47,0,3.02,CF,1603219874
Eidsvåg,62.78,8.07,41,82,75,8.05,NO,1603219874
Dengzhou,37.81,120.75,60.58,70,100,12.19,CN,1603219874
Puerto Nariño,-3.77,-70.38,93.49,45,20,4.18,CO,1603219875
Beringovskiy,63.05,179.32,40.5,88,98,12.08,RU,1603219386
Padang,-0.95,100.35,78.71,75,58,5.06,ID,1603219875
Tsiroanomandidy,-18.77,46.03,75.47,38,0,2.3,MG,1603219875
Mabaruma,8.2,-59.78,85.66,74,28,5.55,GY,1603219367
Zion,42.45,-87.83,48,75,90,10.29,US,1603219876
Sibu,2.3,111.82,75.2,94,40,4.7,MY,1603219876
Los Llanos de Aridane,28.66,-17.92,77,69,20,12.75,ES,1603219500
Luanda,-8.84,13.23,77,78,20,6.93,AO,1603219865
Gaza,31.5,34.47,79,100,0,9.06,PS,1603219876
Martinsville,36.69,-79.87,77,44,1,3.36,US,1603219596
Mahabalipuram,12.63,80.17,78.8,94,40,4.7,IN,1603219877
Adrar,20.5,-10.07,90.09,13,0,7.23,MR,1603219877
Ossora,59.24,163.07,35.38,87,100,7.83,RU,1603219877
Iqaluit,63.75,-68.51,30.2,80,90,9.17,CA,1603219877
Zhangjiakou Shi Xuanhua Qu,40.61,115.04,40.17,60,0,18.52,CN,1603219877
Montevideo,-34.83,-56.17,57.2,50,75,16.11,UY,1603219743
Mount Gambier,-37.83,140.77,46.4,93,90,3.18,AU,1603219878
São João do Paraíso,-15.31,-42.01,80.11,49,99,6.38,BR,1603219878
Le Moule,16.33,-61.35,87.8,66,20,10.29,GP,1603219878
Parnarama,-5.68,-43.09,100.33,24,50,4.47,BR,1603219878
Sisimiut,66.94,-53.67,35.8,94,100,13.65,GL,1603219878
Beberibe,-4.18,-38.13,86,51,20,19.46,BR,1603219878
Chapais,49.78,-74.85,39.2,60,90,6.93,CA,1603219606
Paamiut,61.99,-49.67,36.75,86,100,14.12,GL,1603219365
Seymchan,62.88,152.43,14.92,93,39,2.3,RU,1603219879
Xuanzhou,30.95,118.76,60.85,81,100,4.52,CN,1603219879
Grindavik,63.84,-22.43,37.4,74,75,1.12,IS,1603219879
Emerald,-23.53,148.17,69.8,88,75,8.05,AU,1603219571
Talcahuano,-36.72,-73.12,62.6,55,9,20.8,CL,1603219586
Derzhavīnsk,51.1,66.32,52.41,42,97,10.92,KZ,1603219880
Fare,-16.7,-151.02,79.39,79,92,17.85,PF,1603219880
Beloha,-25.17,45.05,69.24,74,0,4.47,MG,1603219880
Cabra,37.47,-4.44,73.99,38,100,8.01,ES,1603219880
Kandalaksha,67.16,32.41,32.41,94,70,5.55,RU,1603219880
Moerai,-22.43,-151.33,77.04,84,0,10.2,PF,1603219880
Ojuelos de Jalisco,21.87,-101.58,72.36,29,0,7.02,MX,1603219881
Tabou,4.42,-7.35,77.72,81,42,7.29,CI,1603219467
Miracema do Tocantins,-9.56,-48.4,102.13,18,83,4.47,BR,1603219881
Pacho,5.13,-74.16,69.8,46,20,10.29,CO,1603219881
Hirara,24.8,125.28,80.26,82,100,24.9,JP,1603219550
Itamarandiba,-17.86,-42.86,63.21,93,100,4.16,BR,1603219881
Yishui,35.78,118.63,54.93,73,100,6.04,CN,1603219881
Butea,47.07,26.92,46,87,0,5.39,RO,1603219882
Bergen,60.39,5.33,46.99,93,75,21.92,NO,1603219664
Brownwood,31.71,-98.99,84.2,51,40,14.99,US,1603219773
Vojens,55.25,9.31,48.99,93,75,9.17,DK,1603219882
Santa Cruz de la Sierra,-17.8,-63.17,95,41,40,23.04,BO,1603219882
Cangzhou,38.32,116.87,58.98,52,98,11.86,CN,1603219883
Camargo,27.67,-105.17,86.45,17,0,4.5,MX,1603219883
North Battleford,52.78,-108.28,24.8,85,90,10.29,CA,1603219768
Prado,-17.34,-39.22,77.02,83,100,8.05,BR,1603219883
Sambava,-14.27,50.17,75.63,81,100,15.52,MG,1603219513
Wanning,18.8,110.4,71.98,87,56,11.59,CN,1603219495
Santa Rosalía,27.32,-112.28,88.25,34,0,6.46,MX,1603219883
Torit,4.41,32.57,73.49,87,100,2.8,SS,1603219884
Shahreza,32.03,51.88,46.27,39,0,4.34,IR,1603219884
