city_name,lat,lng,max_temp,hum,cloud,wind_speed,country_code,date
Rikitea,-23.1203,-134.9692,80.92,81,33,12.12,PF,3/8/2021
Albany,42.6001,-73.9662,37.99,28,60,2.71,US,3/8/2021
Narsaq,60.9167,-46.05,28.4,80,90,2.75,GL,3/8/2021
Uvira,-3.4067,29.1458,73.47,64,99,5.14,CD,3/8/2021
Faanui,-16.4833,-151.75,82.8,73,100,22.41,PF,3/8/2021
Upernavik,72.7868,-56.1549,-3.66,83,94,9.89,GL,3/8/2021
Ondjiva,-17.0667,15.7333,72.3,50,20,3.58,AO,3/8/2021
Hambantota,6.1241,81.1185,78.15,83,92,13.91,LK,3/8/2021
Geraldton,-28.7667,114.6,71.6,83,80,2.3,AU,3/8/2021
Saint George,37.1041,-113.5841,75.99,11,1,19.57,US,3/8/2021
Great Yarmouth,52.6083,1.7305,44.6,81,90,9.22,GB,3/8/2021
Ostrovnoy,68.0531,39.5131,-0.94,91,100,10.47,RU,3/8/2021
Ushuaia,-54.8,-68.3,62.6,42,40,23.02,AR,3/8/2021
Vysokogornyy,50.1167,139.15,7.41,92,93,4.5,RU,3/8/2021
Hithadhoo,-0.6,73.0833,83.64,65,54,5.53,MV,3/8/2021
Rafaela,-31.2503,-61.4867,87.01,32,10,5.99,AR,3/8/2021
Mataura,-46.1927,168.8643,59,75,66,3,NZ,3/8/2021
Ambon City,-3.6954,128.1814,77,83,20,5.75,ID,3/8/2021
Port Hedland,-20.3167,118.5667,77,94,40,6.91,AU,3/8/2021
Belogorsk,50.9158,128.4611,19.24,97,80,13.85,RU,3/8/2021
Alyangula,-13.8483,136.4192,77,94,100,7.27,AU,3/8/2021
Waingapu,-9.6567,120.2641,77.32,79,37,3.31,ID,3/8/2021
Thaba-Tseka,-29.522,28.6084,55.99,58,42,6.24,LS,3/8/2021
Busselton,-33.65,115.3333,64,87,4,3,AU,3/8/2021
Saldanha,-33.0117,17.9442,57.2,62,100,1.14,ZA,3/8/2021
Cayenne,4.9333,-52.3333,81,83,75,11.5,GF,3/8/2021
Norman Wells,65.282,-126.8329,-0.4,55,20,6.91,CA,3/8/2021
Lüderitz,-26.6481,15.1594,65.12,66,7,6.67,NA,3/8/2021
Tasiilaq,65.6145,-37.6368,21.2,86,90,26.46,GL,3/8/2021
Hilo,19.7297,-155.09,73.4,83,90,8.05,US,3/8/2021
Sitka,57.0531,-135.33,37.4,81,75,3.44,US,3/8/2021
Tuktoyaktuk,69.4541,-133.0374,-22,76,1,5.75,CA,3/8/2021
Yellowknife,62.456,-114.3525,-0.99,50,1,11.5,CA,3/8/2021
Avarua,-21.2078,-159.775,82.4,83,75,10.36,CK,3/8/2021
Chokurdakh,70.6333,147.9167,-16.67,88,98,12.15,RU,3/8/2021
Troitskoye,52.9821,84.6757,14.45,95,95,8.66,RU,3/8/2021
Mayumba,-3.432,10.6554,79.45,88,96,3.69,GA,3/8/2021
Lompoc,34.6391,-120.4579,59,38,1,17.27,US,3/8/2021
Castro,-24.7911,-50.0119,65.86,89,50,2.08,BR,3/8/2021
Tiksi,71.6872,128.8694,-22.4,85,100,12.08,RU,3/8/2021
Jutaí,-5.1833,-68.9,82.49,83,99,1.07,BR,3/8/2021
Pacific Grove,36.6177,-121.9166,57,56,97,4,US,3/8/2021
Hofn,64.2539,-15.2082,41.94,79,100,5.32,IS,3/8/2021
New Norfolk,-42.7826,147.0587,57.99,61,38,3,AU,3/8/2021
Yulara,-25.2406,130.9889,69.8,52,0,9.22,AU,3/8/2021
Dikson,73.5069,80.5464,-21.93,89,99,1.59,RU,3/8/2021
Tarko-Sale,64.9225,77.785,-11.06,90,99,12.44,RU,3/8/2021
Bud,39.447,-86.1758,64.99,25,40,18.41,US,3/8/2021
Makkah al Mukarramah,21.4267,39.8261,76.6,45,0,2.91,SA,3/8/2021
Jiazi,22.8779,116.067,62.26,86,40,12.55,CN,3/8/2021
Kapaa,22.0752,-159.319,75.2,73,90,18.41,US,3/8/2021
Ayan,56.45,138.1667,9.32,88,100,2.55,RU,3/8/2021
Pevek,69.7008,170.3133,-14.91,88,100,12.06,RU,3/8/2021
Karratha,-20.7377,116.8463,78.93,81,6,8.63,AU,3/8/2021
Kenai,60.5544,-151.2583,28.4,63,1,6.91,US,3/8/2021
Mar del Plata,-38.0023,-57.5575,64.99,59,40,16.11,AR,3/8/2021
Bairiki Village,1.3292,172.9752,82.4,74,20,9.22,KI,3/8/2021
East London,-33.0153,27.9116,68.27,67,100,11.12,ZA,3/8/2021
Oranjemund,-28.55,16.4333,61.39,73,33,6.78,NA,3/8/2021
Jingdezhen,29.2947,117.2079,44.31,94,29,1.16,CN,3/8/2021
Lebu,-37.6167,-73.65,61.5,67,47,13.53,CL,3/8/2021
Nikolskoye,59.7035,30.7861,14,73,75,4.47,RU,3/8/2021
Nogliki,51.8333,143.1667,12.04,92,62,10.8,RU,3/8/2021
Catumbela,-12.4314,13.5472,80.47,78,75,2.21,AO,3/8/2021
Klaksvík,62.2266,-6.589,41,100,90,12.66,FO,3/8/2021
Kiama,-34.6833,150.8667,70,82,0,1.01,AU,3/8/2021
Lorengau,-2.0226,147.2712,80.56,79,100,7.38,PG,3/8/2021
Qandala,11.472,49.8728,78.76,49,0,7.87,SO,3/8/2021
Mildura,-34.2,142.15,55.99,82,94,8.05,AU,3/8/2021
Rusape,-18.5278,32.1284,58.41,86,26,3.89,ZW,3/8/2021
Uruçuí,-7.2294,-44.5561,79.54,80,41,3.33,BR,3/8/2021
Quatre Cocos,-20.2078,57.7625,77,94,20,3.44,MU,3/8/2021
Zhalantun,48,122.7167,24.62,80,0,20.78,CN,3/8/2021
Puerto Ayora,-0.7393,-90.3518,84.2,70,20,5.75,EC,3/8/2021
Provideniya,64.3833,-173.3,17.6,79,0,2.24,RU,3/8/2021
Punta Arenas,-53.15,-70.9167,62.6,48,40,29.93,CL,3/8/2021
Nome,64.5011,-165.4064,32,100,90,14.97,US,3/8/2021
Kozan,37.4552,35.8157,59,100,20,5.75,TR,3/8/2021
Hobart,-42.8794,147.3294,59,51,20,14.97,AU,3/8/2021
Bafatá,12.1667,-14.75,73.63,59,0,5.79,GW,3/8/2021
Kayattār,8.95,77.8,77.56,79,96,9.33,IN,3/8/2021
Arrondissement de Mende,44.6667,3.5,28.2,100,35,4.18,FR,3/8/2021
Butaritari,3.0707,172.7902,80.6,79,100,11.25,KI,3/8/2021
Raudeberg,61.9875,5.1352,39.2,70,75,13.8,NO,3/8/2021
Abu Kamal,34.4506,40.9171,58.17,58,49,10,SY,3/8/2021
Vredendal,-31.6683,18.5012,58.69,73,100,8.12,ZA,3/8/2021
Anapskaya,44.89,37.38,42.8,56,94,17.9,RU,3/8/2021
Holguín,20.8872,-76.2631,75.2,64,75,18.41,CU,3/8/2021
Baghdad,33.3406,44.4009,59,51,0,3.44,IQ,3/8/2021
Ilulissat,69.2167,-51.1,17.6,73,75,4.61,GL,3/8/2021
Lodja,-3.4833,23.4333,66.92,98,91,2.59,CD,3/8/2021
Esmeraldas,-19.7625,-44.3139,78.8,69,75,4.61,BR,3/8/2021
Quzhou,28.9594,118.8686,49.19,91,97,2.35,CN,3/8/2021
Barrow,71.2906,-156.7887,8.6,72,90,21.85,US,3/8/2021
Ribeira Grande,38.5167,-28.7,59,94,75,5.75,PT,3/8/2021
Iqaluit,63.7506,-68.5145,10.4,79,90,9.22,CA,3/8/2021
Enshi,30.3,109.4833,47.3,84,83,1.14,CN,3/8/2021
Leverano,40.289,18,50,100,0,3.67,IT,3/8/2021
Tandil,-37.3217,-59.1332,63.05,56,0,13.6,AR,3/8/2021
Thio,-21.6167,166.2167,77,69,0,2.3,NC,3/8/2021
Goderich,43.7501,-81.7165,50,50,100,14.97,CA,3/8/2021
Fortuna,40.5982,-124.1573,51.01,87,75,13.8,US,3/8/2021
Wajir,1.7471,40.0573,75.74,66,17,15.7,KE,3/8/2021
Arraial do Cabo,-22.9661,-42.0278,77,88,75,4.61,BR,3/8/2021
Kütahya,39.4242,29.9833,36,74,0,4.61,TR,3/8/2021
Severo-Kuril'sk,50.6789,156.125,19.96,90,94,20.92,RU,3/8/2021
Moose Factory,51.2585,-80.6094,33.8,93,90,6.91,CA,3/8/2021
Mykhaylivka,47.2724,35.2224,30.2,86,75,4.47,UA,3/8/2021
Turbat,26.0023,63.044,58.57,83,0,1.66,PK,3/8/2021
Tadine,-21.55,167.8833,76.23,81,52,16.6,NC,3/8/2021
Guerrero Negro,27.9769,-114.0611,63.91,58,100,17.56,MX,3/8/2021
Atuona,-9.8,-139.0333,79.47,72,53,13.91,PF,3/8/2021
Dunedin,-45.8742,170.5036,59,68,89,8.01,NZ,3/8/2021
Asău,46.4333,26.4,30,60,87,4.43,RO,3/8/2021
Ambikāpur,23.1167,83.2,66.67,25,0,2.71,IN,3/8/2021
Cape Town,-33.9258,18.4232,62.01,67,0,2.3,ZA,3/8/2021
Yumen,40.2833,97.2,41.32,55,100,14.85,CN,3/8/2021
Calama,-22.4667,-68.9333,75.2,23,0,31.07,CL,3/8/2021
Portobelo,9.55,-79.65,82,79,100,4,PA,3/8/2021
Jamestown,42.097,-79.2353,48.99,42,1,12.17,US,3/8/2021
Souillac,-20.5167,57.5167,77,94,20,3.44,MU,3/8/2021
Zaozyornoye,45.1582,33.2787,41,60,76,8.55,UA,3/8/2021
San Juan,-31.5375,-68.5364,81.95,33,15,4.23,AR,3/8/2021
Chui,-33.6971,-53.4616,69.42,83,100,7.67,UY,3/8/2021
Mahibadhoo,3.7833,72.9667,82.36,76,23,9.51,MV,3/8/2021
Bandarbeyla,9.4942,50.8122,76.64,79,89,11.23,SO,3/8/2021
Saint Paul Harbor,57.79,-152.4072,37.4,65,1,7.27,US,3/8/2021
Rio Grande,-32.035,-52.0986,75,78,59,8.61,BR,3/8/2021
Cabo San Lucas,22.8909,-109.9124,78.01,41,20,13.8,MX,3/8/2021
Umluj,25.0213,37.2685,73.94,59,3,8.43,SA,3/8/2021
Coyhaique,-45.5752,-72.0662,59,51,75,10.36,CL,3/8/2021
Walvis Bay,-22.9575,14.5053,60.8,82,0,3.44,NA,3/8/2021
San Policarpo,12.1791,125.5072,79.38,79,38,16.35,PH,3/8/2021
Kenora,49.8167,-94.4337,46.4,42,75,14.97,CA,3/8/2021
Tuatapere,-46.1333,167.6833,60.01,73,77,5.01,NZ,3/8/2021
Ancud,-41.8697,-73.8203,61,59,0,8.05,CL,3/8/2021
Plettenberg Bay,-34.0527,23.3716,59.67,77,99,2.91,ZA,3/8/2021
Bluff,-46.6,168.3333,60.01,73,82,5.01,NZ,3/8/2021
Port Hardy,50.6996,-127.4199,42.8,81,90,13.8,CA,3/8/2021
Saint-Philippe,-21.3585,55.7679,77,69,0,8.05,RE,3/8/2021
Salalah,17.0151,54.0924,75.2,41,0,4.61,OM,3/8/2021
Kamaishi,39.2667,141.8833,35.49,77,0,3.65,JP,3/8/2021
Qaanaaq,77.484,-69.3632,-8.37,65,63,7.09,GL,3/8/2021
Itaituba,-4.2761,-55.9836,86,74,40,5.75,BR,3/8/2021
Carndonagh,55.25,-7.2667,43.25,94,100,6.62,IE,3/8/2021
Talca,-35.4333,-71.6667,87.8,27,0,8.05,CL,3/8/2021
Port Alfred,-33.5906,26.891,66,78,100,1.01,ZA,3/8/2021
Tessalit,20.1986,1.0114,77.04,18,0,10.11,ML,3/8/2021
Batticaloa,7.7102,81.6924,79.41,76,51,7.18,LK,3/8/2021
Saint-Ambroise,48.5501,-71.3324,26.6,54,20,4.61,CA,3/8/2021
Mahébourg,-20.4081,57.7,77,94,20,3.44,MU,3/8/2021
Kapit,2.0167,112.9333,71.56,95,90,0.67,MY,3/8/2021
Krutinka,56.0055,71.5113,11.01,95,98,15.97,RU,3/8/2021
Lucapa,-8.4192,20.7447,63.72,95,36,1.21,AO,3/8/2021
Thompson,55.7435,-97.8558,33.8,55,20,10.36,CA,3/8/2021
Ust'-Barguzin,53.45,108.9833,6.3,90,68,6.4,RU,3/8/2021
Manavālakurichi,8.1333,77.3,84.2,84,40,3.44,IN,3/8/2021
George Town,5.4112,100.3354,80.01,83,20,2.3,MY,3/8/2021
Ola,59.5833,151.2833,-11.83,81,41,3.76,RU,3/8/2021
Novikovo,51.1537,37.8879,24.89,95,67,4.56,RU,3/8/2021
Tilichiki,60.4667,166.1,-20.97,86,82,2.46,RU,3/8/2021
Moree,-29.4667,149.85,66.2,88,92,8.05,AU,3/8/2021
Shubarshi,48.5872,57.1869,15.85,93,30,10.18,KZ,3/8/2021
Bethel,41.3712,-73.414,41,24,1,8.05,US,3/8/2021
Puri,19.8,85.85,75.2,88,20,6.91,IN,3/8/2021
Kruisfontein,-34.0033,24.7314,61,81,100,1.01,ZA,3/8/2021
Strezhevoy,60.7333,77.5889,-7.6,92,0,6.71,RU,3/8/2021
Codrington,-38.2667,141.9667,57.58,77,89,11.83,AU,3/8/2021
Tirano,46.2154,10.1679,44.01,60,90,3.71,IT,3/8/2021
Banda Aceh,5.5577,95.3222,78.13,81,23,9.64,ID,3/8/2021
Guarujá,-23.9931,-46.2564,81,78,75,8.05,BR,3/8/2021
Springdale,36.1867,-94.1288,66.2,27,1,8.05,US,3/8/2021
Sabha,27.0377,14.4283,75.81,18,100,6.58,LY,3/8/2021
Araouane,18.9048,-3.5265,78.73,16,35,7.99,ML,3/8/2021
Hong Kong,22.2855,114.1577,66,84,57,14.18,HK,3/8/2021
Bāneh,35.9975,45.8853,36.54,79,2,6.08,IR,3/8/2021
Sisimiut,66.9395,-53.6735,12.83,93,92,7.23,GL,3/8/2021
San Cristobal,7.7669,-72.225,77.79,54,100,1.03,VE,3/8/2021
Taoudenni,22.6783,-3.9836,72.72,21,0,8.77,ML,3/8/2021
Ordynskoye,54.3656,81.8994,10.69,93,100,12.44,RU,3/8/2021
Bredasdorp,-34.5322,20.0403,51.8,87,77,5.75,ZA,3/8/2021
Srednekolymsk,67.45,153.6833,-15.99,87,96,9.51,RU,3/8/2021
Cherskiy,68.75,161.3,-18.85,87,100,8.32,RU,3/8/2021
Hamilton,39.1834,-84.5333,66.2,27,1,8.05,US,3/8/2021
Pontal do Paraná,-25.6533,-48.5128,68,80,54,5.82,BR,3/8/2021
Kavieng,-2.5744,150.7967,82.58,78,100,11.97,PG,3/8/2021
Petropavlovsk-Kamchatskiy,53.0452,158.6483,-7.6,64,0,8.95,RU,3/8/2021
Sri Aman,1.2376,111.4621,73.4,100,98,0.25,MY,3/8/2021
Aklavik,68.2191,-135.0107,1.4,60,0,4.61,CA,3/8/2021
Rawson,-43.3002,-65.1023,67.75,34,82,23.04,AR,3/8/2021
Esperance,-33.8667,121.9,60.8,94,75,9.22,AU,3/8/2021
Nazarovo,56.0064,90.3914,27.84,96,100,18.07,RU,3/8/2021
Inongo,-1.95,18.2667,74.14,77,8,2.86,CD,3/8/2021
Torbay,47.6666,-52.7314,28.99,63,75,6.91,CA,3/8/2021
Balaguer,41.7912,0.8109,48,100,20,6.91,ES,3/8/2021
Solhan,38.9634,41.0293,22.98,86,0,1.97,TR,3/8/2021
Meulaboh,4.1363,96.1285,74.98,88,68,5.3,ID,3/8/2021
Gwadar,25.1216,62.3254,69.66,78,0,5.68,PK,3/8/2021
San Andrés,12.5847,-81.7006,79.54,80,6,20.58,CO,3/8/2021
Kīhei,20.785,-156.4656,73.4,83,40,19.57,US,3/8/2021
Ismailia,30.6043,32.2723,59.97,61,31,8.1,EG,3/8/2021
Lincoln,40.8,-96.667,73.4,27,1,18.41,US,3/8/2021
Nara,34.6851,135.8049,39,93,75,2.3,JP,3/8/2021
Vila Franca do Campo,37.7167,-25.4333,55.4,82,20,8.05,PT,3/8/2021
Nanortalik,60.1432,-45.2371,29.1,96,100,14.99,GL,3/8/2021
Bambanglipuro,-7.95,110.2833,75.88,89,100,2.26,ID,3/8/2021
Rāmpura,30.25,75.2333,63.73,32,0,5.97,IN,3/8/2021
Cártama,36.7107,-4.633,59,63,75,9.22,ES,3/8/2021
Itoman,26.1247,127.6694,64.4,94,20,2.3,JP,3/8/2021
Quelimane,-17.8786,36.8883,78.8,83,0,3.44,MZ,3/8/2021
Carauari,-4.8828,-66.8958,79.75,91,100,3.15,BR,3/8/2021
Isangel,-19.55,169.2667,78.8,83,20,5.75,VU,3/8/2021
Longyearbyen,78.2186,15.6401,14,79,20,8.05,SJ,3/8/2021
Shwebo,22.5667,95.7,70.18,41,2,3.87,MM,3/8/2021
‘Āhuimanu,21.4447,-157.8378,77,73,75,12.66,US,3/8/2021
Jalu,29.0331,21.5482,76.32,15,52,16.98,LY,3/8/2021
San Patricio,28.017,-97.5169,73.99,53,75,20.71,US,3/8/2021
Trollhättan Municipality,58.2333,12.4167,24.8,80,95,5.75,SE,3/8/2021
San Quintín,30.4833,-115.95,59.85,63,72,17.4,MX,3/8/2021
Airai,-8.9266,125.4092,59.47,100,99,0.74,TL,3/8/2021
Kinkala,-4.3614,14.7644,78.8,89,20,4.61,CG,3/8/2021
Rudnya,54.947,31.0934,11.05,96,55,6.06,RU,3/8/2021
Upington,-28.4478,21.2561,69.8,24,0,4.61,ZA,3/8/2021
Lavrentiya,65.5833,-171,13.24,87,98,5.79,RU,3/8/2021
Avera,33.194,-82.5271,66.2,18,1,4.61,US,3/8/2021
Baicheng,45.6167,122.8167,33.49,82,0,13.71,CN,3/8/2021
Talnakh,69.4865,88.3972,-12.05,89,96,2.33,RU,3/8/2021
Kushima,31.4583,131.2333,46.4,87,75,6.91,JP,3/8/2021
Tiarei,-17.5333,-149.3333,87.8,66,75,18.41,PF,3/8/2021
Carnarvon,-24.8667,113.6333,77,100,8,8.05,AU,3/8/2021
Alofi,-19.0595,-169.9187,82.4,78,75,11.5,NU,3/8/2021
Ocós,14.5094,-92.1933,93.2,66,75,11.5,GT,3/8/2021
Half Moon Bay,37.4636,-122.4286,57.99,58,75,13.8,US,3/8/2021
Kupang,-10.1667,123.5833,75.2,94,75,4.61,ID,3/8/2021
Impfondo,1.6381,18.0667,73.92,73,73,2.66,CG,3/8/2021
North Bend,43.4065,-124.2243,48.2,76,75,14.97,US,3/8/2021
Toamasina,-18.1667,49.3833,75.2,94,20,4.61,MG,3/8/2021
Tautira,-17.7333,-149.15,87.8,66,75,18.41,PF,3/8/2021
Khatanga,71.9667,102.5,-26.27,87,93,3.56,RU,3/8/2021
Marsh Harbour,26.5412,-77.0636,67.53,68,25,24.36,BS,3/8/2021
Saskylakh,71.9167,114.0833,-30.1,82,75,3.44,RU,3/8/2021
Al Bardīyah,31.7561,25.0865,65.32,40,55,16.51,LY,3/8/2021
Vardø,70.3705,31.1107,23,74,75,24.16,NO,3/8/2021
Nador,35.174,-2.9287,57.2,88,98,2.3,MA,3/8/2021
Vaini,-21.2,-175.2,78.8,65,75,13.8,TO,3/8/2021
São João da Barra,-21.6403,-41.0511,75.2,88,90,13.8,BR,3/8/2021
Morondava,-20.2833,44.2833,77.09,79,0,5.19,MG,3/8/2021
Nishihara,26.1842,127.7558,64.4,77,20,3.44,JP,3/8/2021
Hobyo,5.3505,48.5268,78.33,82,89,13.49,SO,3/8/2021
Gaomi,36.3833,119.7528,42.01,87,0,2.24,CN,3/8/2021
Junction City,39.0286,-96.8314,71.6,28,1,17.27,US,3/8/2021
Hermanus,-34.4187,19.2345,61.52,63,33,7.16,ZA,3/8/2021
Khorinsk,52.1657,109.7726,2.8,90,74,3.6,RU,3/8/2021
Ponta do Sol,32.6667,-17.1,60.8,67,40,5.75,PT,3/8/2021
Laguna,38.421,-121.4238,60.01,38,75,11.5,US,3/8/2021
Wooster,40.8051,-81.9351,57.2,35,1,16.11,US,3/8/2021
Coahuayana Viejo,18.7333,-103.6833,87.26,41,0,7.31,MX,3/8/2021
Praia,14.9215,-23.5087,68,73,20,23.02,CV,3/8/2021
Ubari,26.5921,12.7805,73.96,19,99,9.1,LY,3/8/2021
Dingle,10.9995,122.6711,74.07,89,1,7.58,PH,3/8/2021
Ţahţā,26.7693,31.5021,58.17,34,32,5.66,EG,3/8/2021
Manacapuru,-3.2997,-60.6206,73.4,100,75,2.3,BR,3/8/2021
Klyuchi,52.2667,79.1667,5.04,94,4,8.41,RU,3/8/2021
Ridgecrest,35.6225,-117.6709,69.8,18,1,18.41,US,3/8/2021
Pangnirtung,66.1451,-65.7125,-0.4,78,75,2.44,CA,3/8/2021
Clyde River,70.4692,-68.5914,-2.2,84,90,5.68,CA,3/8/2021
Payo,-3.7508,103.6372,72.25,82,100,1.99,ID,3/8/2021
Bathsheba,13.2167,-59.5167,80.6,57,20,19.57,BB,3/8/2021
Kununurra,-15.7667,128.7333,75.2,94,77,5.75,AU,3/8/2021
Gay,51.4666,58.4552,21.2,79,56,24.61,RU,3/8/2021
Severnoye,56.3491,78.3619,4.95,94,99,10.36,RU,3/8/2021
Bengkulu,-3.8004,102.2655,74.89,65,100,3.91,ID,3/8/2021
Puerto Madero,14.7208,-92.4215,87.8,66,75,11.5,MX,3/8/2021
Divo,5.8397,-5.36,76.26,90,98,5.86,CI,3/8/2021
Nelson Bay,-32.7167,152.15,72,83,0,12.66,AU,3/8/2021
Inta,66.0317,60.1659,-32.82,84,98,4.21,RU,3/8/2021
Amahai,-3.3333,128.9167,77.23,80,58,4.79,ID,3/8/2021
Grootfontein,-19.5667,18.1167,64.4,77,13,2.3,NA,3/8/2021
Byron Bay,-28.65,153.6167,68,94,75,5.75,AU,3/8/2021
Viedma,-40.8135,-62.9967,66.27,41,46,13.58,AR,3/8/2021
La Ronge,55.1001,-105.2842,28.4,40,0,11.5,CA,3/8/2021
Korla,41.7597,86.1469,41.97,62,0,3.24,CN,3/8/2021
Cândido Mota,-22.7464,-50.3869,73.18,84,42,0.51,BR,3/8/2021
Beyneu,45.3167,55.2,33.01,85,100,8.97,KZ,3/8/2021
Honiara,-9.4333,159.95,82.62,74,69,1.61,SB,3/8/2021
Talavera de la Reina,39.9635,-4.8308,47.23,76,94,6.93,ES,3/8/2021
Portland,45.5234,-122.6762,52,50,90,11.5,US,3/8/2021
Karla,59.3723,24.9275,12.2,85,0,3.44,EE,3/8/2021
Shadrinsk,56.0852,63.6335,19.94,94,74,14.79,RU,3/8/2021
Vestmanna,62.1564,-7.1664,41,100,90,12.66,FO,3/8/2021
Bilma,18.6853,12.9164,75.43,14,0,6.17,NE,3/8/2021
Shimoda,34.6667,138.95,39,88,84,15.59,JP,3/8/2021
Kalmunai,7.4167,81.8167,78.33,78,43,6.26,LK,3/8/2021
Samfya,-11.3649,29.5565,64.69,95,100,4.9,ZM,3/8/2021
Biak,-0.9131,122.8766,76.19,79,100,3.36,ID,3/8/2021
Belaya Gora,68.5333,146.4167,-13.27,88,100,5.1,RU,3/8/2021
Camacha,33.0833,-16.3333,59,72,40,12.66,PT,3/8/2021
Dalbandin,28.8947,64.4101,58.37,27,0,4.99,PK,3/8/2021
Ternate,0.8,127.4,79.54,80,71,6.17,ID,3/8/2021
Pahrump,36.2083,-115.9839,68,20,0,5.99,US,3/8/2021
Jianning,27.8333,113.15,48.2,100,75,4.47,CN,3/8/2021
Moerai,-22.4333,-151.3333,80.6,78,100,11.41,PF,3/8/2021
Grindavik,63.8424,-22.4338,35.6,93,75,3.44,IS,3/8/2021
Aracaju,-10.9111,-37.0717,82.4,69,20,12.66,BR,3/8/2021
Isiro,2.7739,27.616,67.15,95,97,3.51,CD,3/8/2021
San Miguel de Cozumel,20.5083,-86.9458,79,57,40,12.66,MX,3/8/2021
Ugoofaaru,5.6667,73,82.9,72,3,6.44,MV,3/8/2021
Matara,5.9485,80.5353,76.73,84,93,10.76,LK,3/8/2021
Santa Helena de Goiás,-17.8136,-50.5969,71.6,88,100,3.89,BR,3/8/2021
São Filipe,14.8961,-24.4956,69.67,76,33,13.04,CV,3/8/2021
Acajutla,13.5928,-89.8275,86,37,0,6.91,SV,3/8/2021
Mazagão,-0.115,-51.2894,84.2,84,90,5.75,BR,3/8/2021
Aksu,41.1231,80.2644,41.49,60,48,3.42,CN,3/8/2021
Port Elizabeth,-33.918,25.5701,62.6,82,20,5.75,ZA,3/8/2021
Mayskiy,47.6931,40.1025,35.6,80,75,13.42,RU,3/8/2021
Uttarkāshi,30.7333,78.45,53.19,43,2,9.15,IN,3/8/2021
Tocache,-8.1842,-76.5125,83.16,69,100,2.13,PE,3/8/2021
Okha,53.5739,142.9478,7.79,93,57,6.49,RU,3/8/2021
Worland,44.0169,-107.9554,53.6,37,1,4.61,US,3/8/2021
South Valley,35.0101,-106.6781,66.99,20,75,11.5,US,3/8/2021
Belfast,54.5833,-5.9333,46.4,87,90,6.91,GB,3/8/2021
Río Gallegos,-51.6226,-69.2181,73.4,27,40,16.11,AR,3/8/2021
Dubbo,-32.25,148.6167,64.4,100,36,3.44,AU,3/8/2021
Aitape,-3.1374,142.3475,78.75,77,100,4.52,PG,3/8/2021
Ixtapa,20.7,-105.2,80.6,61,1,12.66,MX,3/8/2021
Constitución,-35.3333,-72.4167,68.72,49,0,13.22,CL,3/8/2021
Kaitangata,-46.2817,169.8464,60.01,70,91,3,NZ,3/8/2021
Necochea,-38.5473,-58.7368,61,57,2,3,AR,3/8/2021
Evanston,42.0411,-87.6901,62.6,39,40,10.36,US,3/8/2021
Paamiut,61.994,-49.6678,23.11,95,100,12.64,GL,3/8/2021
Laurel,39.0993,-76.8483,53.6,20,1,3.44,US,3/8/2021
Basco,20.4487,121.9702,76.14,81,50,15.21,PH,3/8/2021
Dalvik,65.9702,-18.5286,37.4,70,0,14.97,IS,3/8/2021
Chagoda,59.164,35.3285,-6.75,91,5,4.92,RU,3/8/2021
Logan Lake,50.4998,-120.8025,46.99,34,40,11.5,CA,3/8/2021
Warangal,18,79.5833,68.86,80,0,11.32,IN,3/8/2021
Merrill,45.1805,-89.6835,53.6,32,1,6.91,US,3/8/2021
Tutóia,-2.7619,-42.2744,79.95,83,100,12.44,BR,3/8/2021
Adrar,20.5022,-10.0711,65.21,30,0,8.99,MR,3/8/2021
Bambous Virieux,-20.3428,57.7575,77,94,20,3.44,MU,3/8/2021
Huilong,31.8111,121.655,48.99,91,100,1.01,CN,3/8/2021
Fairbanks,64.8378,-147.7164,28.99,74,40,10.36,US,3/8/2021
Saint-Jean-de-la-Ruelle,47.9113,1.8648,35.6,69,19,8.05,FR,3/8/2021
Valdivia,-39.8142,-73.2459,78.8,36,0,4.61,CL,3/8/2021
Vanimo,-2.6741,141.3028,77.95,83,75,4.5,PG,3/8/2021
Ruteng,-8.6136,120.4721,61.54,100,14,0.87,ID,3/8/2021
Palmer,42.1584,-72.3287,41,17,20,5.75,US,3/8/2021
Camingawan,9.9036,122.8417,74.88,83,17,5.17,PH,3/8/2021
Luhyny,51.082,28.4006,24.24,94,3,7,UA,3/8/2021
Uray,60.1247,64.7758,4.26,95,99,6.64,RU,3/8/2021
Kuril'sk,45.2333,147.8833,22.51,94,63,9.35,RU,3/8/2021
Kabompo,-13.5927,24.2008,63.93,96,100,3.31,ZM,3/8/2021
Henties Bay,-22.116,14.2845,65.01,80,0,16.44,NA,3/8/2021
Beringovskiy,63.05,179.3167,-14.39,86,99,4.7,RU,3/8/2021
Virden,39.5009,-89.7679,68,34,30,8.01,US,3/8/2021
Giyani,-23.3025,30.7187,75.52,72,0,5.91,ZA,3/8/2021
Kirkuk,35.4681,44.3922,51.21,65,0,2.89,IQ,3/8/2021
Kokstad,-30.5472,29.4241,61.29,94,95,4,ZA,3/8/2021
Tokmak,47.2514,35.7058,31.87,96,100,7.05,UA,3/8/2021
Hasaki,35.7333,140.8333,41,81,75,9.22,JP,3/8/2021
Thunder Bay,48.4001,-89.3168,50,37,40,9.22,CA,3/8/2021
Xingyi,24.1877,102.817,48.06,60,0,2.8,CN,3/8/2021
Alexandria,31.2156,29.9553,57.63,72,2,10.04,EG,3/8/2021
Kulhudhuffushi,6.6221,73.07,82.87,70,0,5.75,MV,3/8/2021
Alice Springs,-23.7,133.8833,71.6,43,39,3.44,AU,3/8/2021
Kieta,-6.2167,155.6333,81.91,74,78,3.06,PG,3/8/2021
Andros Town,24.7,-77.7667,71.6,56,75,17.27,BS,3/8/2021
Faya,18.3851,42.4509,60.8,72,0,9.22,SA,3/8/2021
Assiut,27.181,31.1837,55.49,38,54,2.53,EG,3/8/2021
Pineville,31.3224,-92.4343,73.4,28,1,6.91,US,3/8/2021
Coari,-4.085,-63.1414,77.79,94,100,1.77,BR,3/8/2021
Soyo,-6.1349,12.3689,79.68,84,58,5.48,AO,3/8/2021
Maceió,-9.6658,-35.7353,78.8,83,20,9.22,BR,3/8/2021
Pouébo,-20.4,164.5667,78.1,75,10,12.12,NC,3/8/2021
Onega,63.9061,38.1404,-19.48,86,36,4.29,RU,3/8/2021
Bull Savanna,17.8868,-77.5902,78.94,69,36,9.91,JM,3/8/2021
Qaqortoq,60.7167,-46.0333,28.4,80,90,7.09,GL,3/8/2021
Saint-Pierre,-21.3393,55.4781,77,73,0,8.05,RE,3/8/2021
Blagoyevo,63.3667,47.9167,-20.85,86,38,5.64,RU,3/8/2021
Poronaysk,49.2167,143.1167,18.16,92,100,6.31,RU,3/8/2021
Limbaži,57.5129,24.7194,14,89,0,1.01,LV,3/8/2021
Motala,58.5371,15.0365,24.8,68,99,3.44,SE,3/8/2021
Reinosa,42.9996,-4.138,46,96,100,6.96,ES,3/8/2021
Turukhansk,65.8167,87.9833,9.57,95,100,10.13,RU,3/8/2021
Santa Maria,-29.6842,-53.8069,74.01,61,26,5.46,BR,3/8/2021
Antalaha,-14.9003,50.2788,74.1,94,100,6.22,MG,3/8/2021
Dinguiraye,11.3,-10.7167,88.74,30,96,2.59,GN,3/8/2021
Kumul,42.8,93.45,42.6,55,99,4.9,CN,3/8/2021
New Richmond,45.123,-92.5366,55.4,40,1,4.61,US,3/8/2021
Halifax,44.6453,-63.5724,35.6,38,20,9.22,CA,3/8/2021
Asino,56.9979,86.1452,11.93,94,89,11.72,RU,3/8/2021
Shihezi,44.3,86.0333,31.55,89,95,4.03,CN,3/8/2021
Makakilo City,21.3469,-158.0858,78.8,61,40,12.66,US,3/8/2021
Kamenka,51.3223,42.7678,21.99,93,81,3.47,RU,3/8/2021
Benalla,-36.55,145.9833,57.99,88,0,5.75,AU,3/8/2021
Las Vegas,36.175,-115.1372,75.2,16,1,19.57,US,3/8/2021
Turaif,31.6725,38.6637,50,76,0,11.5,SA,3/8/2021
Porto-Novo,6.4965,2.6036,86,79,20,16.11,BJ,3/8/2021
Paracatu,-17.2222,-46.8747,69.1,97,100,0.83,BR,3/8/2021
Puerto Madryn,-42.7692,-65.0385,66.4,39,89,22.26,AR,3/8/2021
Jackson,42.4165,-122.8345,53.6,35,75,19.57,US,3/8/2021
Clarence Town,-32.5833,151.7833,72,83,0,12.66,AU,3/8/2021
Katsuura,35.1333,140.3,45,76,75,13.8,JP,3/8/2021
Gambo,4.6482,22.2633,73.31,57,10,2.48,CF,3/8/2021
Iquitos,-3.7481,-73.2472,86,70,40,9.22,PE,3/8/2021
Nokaneng,-19.6667,22.2667,70.52,75,88,4.74,BW,3/8/2021
Kabansk,52.0486,106.6528,12.2,79,47,8.95,RU,3/8/2021
Hualahuises,24.8847,-99.6733,72.75,52,95,10.02,MX,3/8/2021
Novoukrainskoye,45.3783,40.5297,32.18,95,46,9.8,RU,3/8/2021
Inuvik,68.3499,-133.7218,1.4,60,0,4.61,CA,3/8/2021
Gazli,40.1333,63.45,50.43,47,35,7.7,UZ,3/8/2021
Yerbogachën,61.2767,108.0108,6.96,94,88,9.93,RU,3/8/2021
Marovoay,-16.1,46.6333,80.6,74,20,8.05,MG,3/8/2021
Sioux Lookout,50.1001,-91.917,48.2,40,40,6.91,CA,3/8/2021
Donskoye,45.4552,41.9741,32,80,40,6.71,RU,3/8/2021
Zhangye,38.9342,100.4517,40.15,57,47,4.61,CN,3/8/2021
Gravdal,68.1214,13.5031,21.2,93,20,4.61,NO,3/8/2021
Sobolevo,54.4299,31.8996,9.18,95,14,7.67,RU,3/8/2021
Maputo,-25.9653,32.5892,80.6,89,0,9.22,MZ,3/8/2021
Sánchez,19.2281,-69.6137,84.2,74,75,17.27,DO,3/8/2021
Buala,-8.145,159.5921,82.78,71,33,4.38,SB,3/8/2021
Port Blair,11.6667,92.75,79.21,77,0,6.38,IN,3/8/2021
Khambhāt,22.3,72.6167,73.29,42,0,9.15,IN,3/8/2021
Deputatsky,69.3,139.9,-22.04,87,83,6.58,RU,3/8/2021
Koungou,-12.7336,45.2042,78.8,83,40,3.44,YT,3/8/2021
Flinders,-34.5833,150.8552,66.99,82,7,1.01,AU,3/8/2021
Rundu,-17.9333,19.7667,67.73,59,6,3.13,NA,3/8/2021
Lüshunkou,38.8,121.2667,35.6,69,0,2.24,CN,3/8/2021
Miyako,39.6367,141.9525,34.5,79,1,3.4,JP,3/8/2021
Graciano Sánchez,23.9167,-99.2833,78.8,36,75,9.22,MX,3/8/2021
Dvinskoy Bereznik,62.8551,42.7072,-19.21,87,69,5.75,RU,3/8/2021
Tual,-5.6667,132.75,82.72,77,95,15.73,ID,3/8/2021
Mossamedes,-15.1961,12.1522,77.02,69,36,3.11,AO,3/8/2021
Kidal,18.4411,1.4078,82.04,15,0,10.16,ML,3/8/2021
Rājpīpla,21.8667,73.5,70.68,42,0,2.46,IN,3/8/2021
Kampong Cham,11.9934,105.4635,75.97,69,6,3.62,KH,3/8/2021
Jumla,29.2747,82.1838,38.35,71,1,3.85,NP,3/8/2021
Yaan,7.3833,8.5667,85.96,51,3,10.83,NG,3/8/2021
Gusau,12.1628,6.6614,80.78,15,39,9.08,NG,3/8/2021
Ootmarsum,52.4076,6.8969,41,94,100,3,DE,3/8/2021
Saint-François,46.4154,3.9054,41,70,0,2.3,FR,3/8/2021
Sun City West,33.662,-112.3413,84,11,1,11.5,US,3/8/2021
Touros,-5.1989,-35.4608,80.6,78,20,8.05,BR,3/8/2021
Praia da Vitória,38.7333,-27.0667,59,100,75,0.89,PT,3/8/2021
Belyy Yar,53.6039,91.3903,33.8,69,0,11.18,RU,3/8/2021
Krasnosel'kup,65.7,82.4667,-1.59,92,100,14.03,RU,3/8/2021
Nísia Floresta,-6.0911,-35.2086,82.4,78,20,11.5,BR,3/8/2021
Wangaratta,-36.3667,146.3333,57.2,88,2,5.75,AU,3/8/2021
Aljezur,37.3191,-8.8033,52.97,76,78,10.67,PT,3/8/2021
Frederikshavn,57.4407,10.5366,30.2,74,49,1.14,DK,3/8/2021
Mt. Pleasant,32.7941,-79.8626,57.99,30,1,5.44,US,3/8/2021
Morón,-34.6534,-58.6198,87.01,46,61,5.01,AR,3/8/2021
Anadyr,64.75,177.4833,-18,76,20,4.47,RU,3/8/2021
Novozaimka,56.4857,66.9241,19.15,96,100,17.31,RU,3/8/2021
Poum,-20.2333,164.0167,79.03,74,1,13.58,NC,3/8/2021
Tabuk,17.4189,121.4443,67.12,87,41,0.98,PH,3/8/2021
Nemuro,43.3236,145.575,26.33,92,0,5.59,JP,3/8/2021
Moba,33.2288,105.0179,37.51,89,73,2.95,CN,3/8/2021
Kakching,24.4833,93.9833,53.96,78,0,0.89,IN,3/8/2021
Pisco,-13.7,-76.2167,80.6,57,0,9.22,PE,3/8/2021
Inírida,3.8653,-67.9239,80.76,87,87,2.91,CO,3/8/2021
Tara,56.8944,74.371,5.67,94,95,9.73,RU,3/8/2021
Puerto Escondido,15.85,-97.0667,84.2,65,75,5.75,MX,3/8/2021
Dezful,32.3811,48.4058,60.94,32,0,5.28,IR,3/8/2021
Naze,28.3667,129.4833,62.65,86,50,4.61,JP,3/8/2021
Husavik,66.0449,-17.3389,37.4,70,0,14.97,IS,3/8/2021
Khovu-Aksy,51.1333,93.6,17.83,88,98,3.31,RU,3/8/2021
Namatanai,-3.6667,152.4333,81.5,75,90,8.08,PG,3/8/2021
Aksarka,66.5606,67.7975,-27.78,86,82,3.89,RU,3/8/2021
Vila Velha,-20.3297,-40.2925,84,83,75,8.05,BR,3/8/2021
Gashua,12.871,11.0482,79.05,12,26,8.77,NG,3/8/2021
Arlit,18.7369,7.3853,84.22,14,86,8.41,NE,3/8/2021
Dukat,62.55,155.55,-22.9,81,4,2.8,RU,3/8/2021
Mount Isa,-20.7333,139.5,75.2,73,27,4.61,AU,3/8/2021
Sept-Îles,50.2001,-66.3821,28.99,68,20,9.22,CA,3/8/2021
Honningsvåg,70.9821,25.9704,21.2,68,0,10.36,NO,3/8/2021
Maragogi,-9.0122,-35.2225,79,81,2,10.13,BR,3/8/2021
Menongue,-14.6585,17.691,65.07,62,50,1.81,AO,3/8/2021
Balvi,57.1313,27.2658,11.86,96,38,4.12,LV,3/8/2021
Ust-Nera,64.5667,143.2,-23.13,77,100,4.43,RU,3/8/2021
Yeppoon,-23.1333,150.7333,73.4,83,0,3.47,AU,3/8/2021
Hwange,-18.3693,26.5019,66.7,94,8,1.97,ZW,3/8/2021
Porbandar,21.6422,69.6093,71.56,84,0,6.31,IN,3/8/2021
Piaçabuçu,-10.4056,-36.4344,79.07,78,3,11.59,BR,3/8/2021
Progreso,21.2833,-89.6667,81,41,75,6.91,MX,3/8/2021
Jiwani,25.05,61.7417,71.67,77,0,8.84,PK,3/8/2021
Barabash,43.2,131.4833,35.6,80,75,8.95,RU,3/8/2021
Zyryanovsk,49.7386,84.2719,26.1,97,100,1.72,KZ,3/8/2021
Caucayá,-0.1934,-74.7819,70.74,97,100,3.24,CO,3/8/2021
Solnechnyy,50.7214,136.6319,12.88,94,100,8.88,RU,3/8/2021
Kysyl-Syr,63.8986,122.7617,-8.34,90,89,1.72,RU,3/8/2021
Nyurba,63.2842,118.3319,0,93,88,6.49,RU,3/8/2021
Grand-Santi,4.25,-54.3833,74.68,95,98,3.04,GF,3/8/2021
Leningradskiy,69.3833,178.4167,-12.87,87,100,2.77,RU,3/8/2021
Tsimmerbude,54.675,20.1347,30.99,64,40,8.95,RU,3/8/2021
Matamoros,25.5333,-103.25,78.8,21,20,5.95,MX,3/8/2021
Muisne,0.6,-80.0333,75.88,88,100,13.91,EC,3/8/2021
Linjiang,41.8069,126.9078,23.23,92,0,2.73,CN,3/8/2021
Pāsighāt,28.0667,95.3333,65.14,52,33,3.56,IN,3/8/2021
Opuwo,-18.0607,13.84,72,36,53,4.56,NA,3/8/2021
Scottsbluff,41.8666,-103.6672,63,31,1,8.59,US,3/8/2021
Itarema,-2.9248,-39.9167,80.28,80,99,12.26,BR,3/8/2021
Gorom-Gorom,14.4439,-0.2361,85.78,13,10,7.07,BF,3/8/2021
Lokoja,7.8024,6.743,83.39,63,8,8.68,NG,3/8/2021
Vestmannaeyjar,63.4427,-20.2734,41.32,68,79,11.03,IS,3/8/2021
Peći,44.6272,16.7861,37.4,70,0,3.44,BA,3/8/2021
Zyryanka,65.75,150.85,-18.35,81,77,9.89,RU,3/8/2021
Grand Gaube,-20.0064,57.6608,77,80,0,3,MU,3/8/2021
Shiloh,38.5614,-89.8973,68,30,1,8.05,US,3/8/2021
Coquimbo,-29.9533,-71.3436,69.8,68,20,10.36,CL,3/8/2021
Requena,39.4883,-1.1004,51.01,90,100,1.01,ES,3/8/2021
Kabinda,-6.1333,24.4833,65.84,94,96,2.42,CD,3/8/2021
Kansanshi,-12.0951,26.4273,61.97,97,100,3.98,ZM,3/8/2021
Roebourne,-20.7833,117.1333,78.8,82,0,8.9,AU,3/8/2021
Ocampo,21.65,-101.5,75.97,17,1,7.52,MX,3/8/2021
Gryazovets,58.88,40.2525,-2.13,93,100,6.89,RU,3/8/2021
Lázaro Cárdenas,17.9583,-102.2,83.17,55,0,13.87,MX,3/8/2021
Gomel,52.4345,30.9754,23,68,90,13.42,BY,3/8/2021
Didi Lilo,41.7361,44.9647,28.4,93,0,1.14,GE,3/8/2021
Lábrea,-7.2586,-64.7981,77.9,92,98,5.28,BR,3/8/2021
Luau,-10.7073,22.2247,64.29,97,100,1.68,AO,3/8/2021
Kiryat Gat,31.61,34.7642,55,100,0,1.12,IL,3/8/2021
Arinos,-15.9169,-46.1056,75.13,80,97,3.06,BR,3/8/2021
Sørland,67.667,12.6934,21.2,93,20,4.61,NO,3/8/2021
Nanga Eboko,4.6833,12.3667,75.11,64,0,6.35,CM,3/8/2021
Parga,39.2831,20.3964,50,93,40,3.69,GR,3/8/2021
Den Helder,52.9599,4.7593,42.8,93,75,12.66,NL,3/8/2021
Saint-Joseph,-21.3667,55.6167,77,73,0,8.05,RE,3/8/2021
Ilebo,-4.3167,20.5833,71.33,84,81,1.74,CD,3/8/2021
Ust'-Omchug,61.15,149.6333,-24.68,76,0,0.67,RU,3/8/2021
Kahului,20.8947,-156.47,73.4,83,40,19.57,US,3/8/2021
Barra do Garças,-15.89,-52.2567,77,94,75,3.49,BR,3/8/2021
Ankazobe,-18.3167,47.1167,66.2,88,75,5.75,MG,3/8/2021
Maningrida,-12.0667,134.2667,78.94,86,100,2.51,AU,3/8/2021
Turangi,-39,175.9333,64,66,83,1.99,NZ,3/8/2021
Ürümqi,43.801,87.6005,24.8,93,62,2.24,CN,3/8/2021
Ranchi,23.35,85.3333,71.6,53,20,5.26,IN,3/8/2021
Waynesville,35.4887,-82.9887,57.99,4,1,1.01,US,3/8/2021
Khani,41.9563,42.9566,33.8,100,75,3.44,GE,3/8/2021
Virginia Beach,36.8529,-75.978,51.8,37,1,12.66,US,3/8/2021
Tokur,53.1333,132.9,7.61,97,100,1.72,RU,3/8/2021
Padang,-0.9492,100.3543,75.2,100,40,1.14,ID,3/8/2021
Shalinskoye,55.7228,93.7594,31.57,94,100,15.21,RU,3/8/2021
Ponta Delgada,37.7333,-25.6667,55.4,82,20,6.91,PT,3/8/2021
Ereymentau,51.6199,73.1033,3.67,90,9,15.66,KZ,3/8/2021
Ahipara,-35.1667,173.1667,65.48,66,97,4.38,NZ,3/8/2021
Kavaratti,10.5669,72.642,82.09,71,0,8.9,IN,3/8/2021
Te Anau,-45.4167,167.7167,55.69,66,97,3.71,NZ,3/8/2021
Los Llanos de Aridane,28.6585,-17.9182,64.4,82,75,13.8,ES,3/8/2021
Broken Hill,-31.95,141.4333,66.2,59,46,11.5,AU,3/8/2021
Shinpokh,34.3292,71.1782,62.6,59,40,4.61,PK,3/8/2021
São Miguel do Araguaia,-13.275,-50.1628,73.06,95,99,5.35,BR,3/8/2021
Russell,32.3502,-85.1999,71.6,14,1,3.44,US,3/8/2021
Riyadh,24.6877,46.7219,73.4,27,0,9.22,SA,3/8/2021
El Tigre,8.8875,-64.2454,83.5,57,100,15.12,VE,3/8/2021
Ozinki,51.1786,49.6769,28.69,99,100,8.01,RU,3/8/2021
Laas,46.6166,10.7002,41,64,0,4.61,IT,3/8/2021
Adana Province,36.985,35.2881,50,87,20,5.06,TR,3/8/2021
Pidhorodne,48.5753,35.1068,28.4,86,66,4.47,UA,3/8/2021
Metlaltoyuca,20.7333,-97.85,73.4,64,90,9.22,MX,3/8/2021
Luba,3.4568,8.5547,80.6,100,20,8.05,GQ,3/8/2021
Mahajanga,-15.7167,46.3167,80.6,74,20,8.05,MG,3/8/2021
Babu,24.4167,111.5167,59.7,83,93,3.47,CN,3/8/2021
San Pablo City,14.0669,121.3258,78.8,73,20,2.3,PH,3/8/2021
Lufilufi,-13.8745,-171.5986,78.8,94,75,4.61,WS,3/8/2021
Bongandanga,1.5,21.05,69.82,93,0,1.99,CD,3/8/2021
Maniitsoq,65.4167,-52.9,19.13,96,99,10.04,GL,3/8/2021
Tombouctou,20,-3,72.79,20,0,3.15,ML,3/8/2021
Shingū,33.7333,135.9833,46.67,79,49,4.16,JP,3/8/2021
Clonakilty,51.6231,-8.8706,44.01,93,75,12.66,IE,3/8/2021
Mengcheng,33.2579,116.5655,47.25,96,100,6.11,CN,3/8/2021
Alta Floresta,-9.8756,-56.0861,71.58,99,100,4.92,BR,3/8/2021
Tucuruí,-3.7661,-49.6725,77.18,90,95,4.12,BR,3/8/2021
