city_name,lat,lng,max_temp,hum,cloud,wind_speed,country_code,date
Cape Town,-33.93,18.42,69.01,82,75,12.75,ZA,10/23/2020
Walvis Bay,-22.96,14.51,69.8,60,0,8.05,NA,10/23/2020
General Roca,-39.03,-67.58,77.23,46,7,17.09,AR,10/23/2020
Saint Paul Harbor,57.79,-152.41,44.6,93,90,26.4,US,10/23/2020
Neuquén,-38.95,-68.06,77.95,43,58,11.41,AR,10/23/2020
Ushuaia,-54.8,-68.3,46.4,61,40,17.22,AR,10/23/2020
Vaini,-21.2,-175.2,71.6,88,20,9.17,TO,10/23/2020
Mahibadhoo,3.78,72.97,82.45,79,10,13.98,MV,10/23/2020
Hermanus,-34.42,19.23,75.99,71,19,1.01,ZA,10/23/2020
Maryborough,-25.53,152.7,68.95,84,99,5.79,AU,10/23/2020
Hobart,-42.88,147.33,54,76,90,1.81,AU,10/23/2020
Skeldon,5.88,-57.13,86.11,71,39,7.4,GY,10/23/2020
Romitan,39.93,64.38,50,46,0,6.93,UZ,10/23/2020
Tambilil,5.96,124.67,80.67,71,100,1.81,PH,10/23/2020
Dingle,11,122.67,76.37,91,100,6.06,PH,10/23/2020
Dunedin,-45.87,170.5,51.01,87,59,1.99,NZ,10/23/2020
Kavieng,-2.57,150.8,81.95,67,3,5.91,PG,10/23/2020
Praia da Vitória,38.73,-27.07,69.8,100,40,11.45,PT,10/23/2020
Busselton,-33.65,115.33,57,42,0,13.65,AU,10/23/2020
Chicama,-7.84,-79.15,62.6,82,90,9.17,PE,10/23/2020
Ribeira Grande,38.52,-28.7,69.8,68,40,13.87,PT,10/23/2020
Jesolo,45.53,12.64,57.99,93,75,3.36,IT,10/23/2020
Barrow,71.29,-156.79,32,98,90,9.17,US,10/23/2020
Umm Kaddadah,13.6,26.69,93.76,10,10,8.46,SD,10/23/2020
Pevek,69.7,170.31,26.94,95,0,12.66,RU,10/23/2020
Gawler,-34.6,138.73,57,74,100,5.99,AU,10/23/2020
Necochea,-38.55,-58.74,62.01,78,57,1.99,AR,10/23/2020
Yerbogachën,61.28,108.01,26.42,96,65,5.53,RU,10/23/2020
Barzas,55.72,86.32,30.2,74,40,11.18,RU,10/23/2020
East London,-33.02,27.91,71.6,88,40,18.34,ZA,10/23/2020
Namie,37.48,141,61,72,40,1.99,JP,10/23/2020
Bengkulu,-3.8,102.27,78.4,83,100,4.16,ID,10/23/2020
Dikson,73.51,80.55,23.5,95,100,15.19,RU,10/23/2020
Kampong Thom,12.71,104.89,74.64,83,100,4.36,KH,10/23/2020
Albany,42.6,-73.97,71.01,77,48,1.99,US,10/23/2020
Iranshahr,27.2,60.68,80.6,10,0,18.34,IR,10/23/2020
Río Gallegos,-51.62,-69.22,50,76,90,4.7,AR,10/23/2020
Mareeba,-17,145.43,77,78,75,1.81,AU,10/23/2020
Verkhnyaya Maksakovka,61.63,50.97,26.6,73,40,13.42,RU,10/23/2020
Rikitea,-23.12,-134.97,73.9,78,48,3.51,PF,10/23/2020
Jalalpur Jattan,32.64,74.22,75.2,57,0,5.7,PK,10/23/2020
Ostrovnoy,68.05,39.51,30.4,98,100,11.59,RU,10/23/2020
Mataura,-46.19,168.86,54,75,88,7,NZ,10/23/2020
Mitú,1.2,-70.17,80.6,85,99,1.12,CO,10/23/2020
Provideniya,64.38,-173.3,33.82,91,100,14.27,RU,10/23/2020
Tuktoyaktuk,69.45,-133.04,24.8,92,90,14.99,CA,10/23/2020
Bredasdorp,-34.53,20.04,71.6,78,39,11.41,ZA,10/23/2020
Punta Arenas,-53.15,-70.92,44.6,75,75,8.05,CL,10/23/2020
Leningradskiy,69.38,178.42,23.76,91,0,4.79,RU,10/23/2020
Vrangel',42.73,133.08,37.76,72,0,20.92,RU,10/23/2020
Lindi,-10,39.72,82.4,69,20,10.29,TZ,10/23/2020
Longyearbyen,78.22,15.64,19.4,73,20,2.24,SJ,10/23/2020
Rūdbār,30.15,62.6,62.53,30,0,13.89,AF,10/23/2020
Butaritari,3.07,172.79,82.31,70,90,12.37,KI,10/23/2020
Hue,16.47,107.6,71.6,78,40,3.36,VN,10/23/2020
Morón,-34.65,-58.62,70,82,90,4.7,AR,10/23/2020
La Ronge,55.1,-105.28,21.2,79,90,10.29,CA,10/23/2020
Port Alfred,-33.59,26.89,76.03,73,56,11.12,ZA,10/23/2020
Lebu,-37.62,-73.65,55.53,60,95,6.38,CL,10/23/2020
Zaria,11.11,7.72,87.37,27,33,7,NG,10/23/2020
Abohar,30.15,74.18,74.61,19,0,4.94,IN,10/23/2020
San Patricio,28.02,-97.52,84,83,40,3.36,US,10/23/2020
San Quintín,30.48,-115.95,65.23,70,100,5.57,MX,10/23/2020
Sunrise Manor,36.21,-115.07,64.99,18,0,11.41,US,10/23/2020
Chokurdakh,70.63,147.92,6.35,90,33,5.84,RU,10/23/2020
Avarua,-21.21,-159.78,73.4,73,99,10.29,CK,10/23/2020
Linxia Chengguanzhen,35.6,103.21,49.96,64,100,1.86,CN,10/23/2020
San Miguel de Tucumán,-26.82,-65.22,73.4,78,90,5.82,AR,10/23/2020
Abhā,18.22,42.51,73.4,16,0,10.29,SA,10/23/2020
Carbonia,39.17,8.52,77,83,40,5.82,IT,10/23/2020
Bom Conselho,-9.17,-36.68,88.52,36,15,15.19,BR,10/23/2020
Hambantota,6.12,81.12,82.4,78,0,10.29,LK,10/23/2020
Svay Rieng,11.09,105.8,78.1,84,100,3.04,KH,10/23/2020
Markova,48.68,24.41,55.4,76,0,3.71,UA,10/23/2020
Sadasivpet,17.62,77.95,75.99,88,75,5.1,IN,10/23/2020
Port-Gentil,-0.72,8.78,77,83,90,12.75,GA,10/23/2020
Mar del Plata,-38,-57.56,59,93,90,5.82,AR,10/23/2020
Ledyard Center,41.44,-72.01,64,82,90,3.36,US,10/23/2020
Ponta Delgada,37.73,-25.67,68,68,20,12.75,PT,10/23/2020
Waipawa,-41.41,175.52,57.2,71,39,21.92,NZ,10/23/2020
San Cristobal,7.77,-72.22,93.2,38,20,23.04,VE,10/23/2020
Tura,25.52,90.22,70.05,98,100,5.01,IN,10/23/2020
Kahului,20.89,-156.47,71.6,68,1,2.28,US,10/23/2020
Korla,41.76,86.15,50.67,40,0,4.99,CN,10/23/2020
Meulaboh,4.14,96.13,79.43,84,99,1.66,ID,10/23/2020
Geraldton,-28.77,114.6,66.2,63,0,12.75,AU,10/23/2020
Kūdligi,14.9,76.38,74.08,82,85,8.14,IN,10/23/2020
Kaitangata,-46.28,169.85,49.6,93,97,4.27,NZ,10/23/2020
Ambulu,-8.35,113.61,76.57,88,31,2.98,ID,10/23/2020
Katsuura,35.13,140.3,64.4,59,40,12.75,JP,10/23/2020
Kapaa,22.08,-159.32,70,79,10,8.01,US,10/23/2020
Inuvik,68.35,-133.72,28.4,92,90,4.7,CA,10/23/2020
Alofi,-19.06,-169.92,73.4,100,100,9.17,NU,10/23/2020
Del Rio,29.36,-100.9,80.6,69,75,10.29,US,10/23/2020
Kudahuvadhoo,2.67,72.89,82.81,78,0,11.45,MV,10/23/2020
Bluff,-46.6,168.33,54,75,95,7,NZ,10/23/2020
Qui Nhon,13.77,109.23,73.58,77,100,8.52,VN,10/23/2020
Faanui,-16.48,-151.75,78.53,76,79,10.69,PF,10/23/2020
Jutaí,-5.18,-68.9,84.27,79,80,1.59,BR,10/23/2020
Skjervøy,70.03,20.97,37.4,91,75,17.22,NO,10/23/2020
Oshikango,-17.4,15.88,102.2,12,0,2.24,NA,10/23/2020
New Norfolk,-42.78,147.06,54,84,100,1.01,AU,10/23/2020
Rawson,-43.3,-65.1,79.54,25,38,12.77,AR,10/23/2020
Castro,-24.79,-50.01,74.3,61,43,5.44,BR,10/23/2020
North Bend,43.41,-124.22,45,93,1,3.36,US,10/23/2020
Talnakh,69.49,88.4,-2.2,84,40,11.18,RU,10/23/2020
Pathein,16.78,94.73,76.3,93,28,3.96,MM,10/23/2020
Port Moresby,-9.44,147.18,76.24,90,99,2.89,PG,10/23/2020
Kapit,2.02,112.93,74.03,94,100,2.19,MY,10/23/2020
Hithadhoo,-0.6,73.08,82.83,77,0,12.1,MV,10/23/2020
Yaan,7.38,8.57,83.19,79,93,5.57,NG,10/23/2020
Biscarrosse,44.39,-1.17,62.6,77,49,11.41,FR,10/23/2020
Husavik,66.04,-17.34,42.8,70,75,20.8,IS,10/23/2020
Trincomalee,8.57,81.23,81,76,0,12.21,LK,10/23/2020
Jamestown,42.1,-79.24,71.01,68,1,10.29,US,10/23/2020
Saldanha,-33.01,17.94,69.8,64,33,5.82,ZA,10/23/2020
Olafsvik,64.89,-23.71,43.21,73,100,36.64,IS,10/23/2020
Wuning,29.26,120.23,49.33,75,0,2.1,CN,10/23/2020
Kruisfontein,-34,24.73,73,72,0,10,ZA,10/23/2020
Saint George,37.1,-113.58,57,27,1,2.84,US,10/23/2020
George Town,5.41,100.34,82,83,40,2.24,MY,10/23/2020
Alice Springs,-23.7,133.88,68,49,0,9.17,AU,10/23/2020
Aykhal,66,111.5,23,67,90,15.66,RU,10/23/2020
Lüderitz,-26.65,15.16,64.29,70,7,5.12,NA,10/23/2020
Ndélé,8.41,20.65,78.39,79,87,1.45,CF,10/23/2020
Pisco,-13.7,-76.22,66.99,77,40,10.29,PE,10/23/2020
Aksarka,66.56,67.8,14.81,94,41,8.63,RU,10/23/2020
Esperance,-33.87,121.9,53.6,100,90,5.82,AU,10/23/2020
Trelew,-43.25,-65.31,84.99,19,41,14.09,AR,10/23/2020
Haines Junction,60.75,-137.51,16,88,0,1.03,CA,10/23/2020
Hilo,19.73,-155.09,71.6,78,1,4.7,US,10/23/2020
Sidi Ali,36.1,0.42,66.78,70,100,7.14,DZ,10/23/2020
Hobyo,5.35,48.53,81.91,78,96,20.56,SO,10/23/2020
Nome,64.5,-165.41,33.8,43,1,11.41,US,10/23/2020
Elizabethton,36.35,-82.21,73.4,60,1,1.77,US,10/23/2020
Upernavik,72.79,-56.15,21.49,95,100,8.08,GL,10/23/2020
Hong Kong,22.29,114.16,75.99,46,100,1.01,HK,10/23/2020
Gornopravdinsk,60.05,69.9,17.76,96,2,3.36,RU,10/23/2020
Havøysund,71,24.66,39.2,80,75,29.97,NO,10/23/2020
Ballymena,54.86,-6.28,51.8,71,40,12.75,GB,10/23/2020
Saskylakh,71.92,114.08,20.35,97,100,9.6,RU,10/23/2020
Cidreira,-30.18,-50.21,71.26,80,100,15.37,BR,10/23/2020
Kutum,14.2,24.67,83.82,14,0,5.37,SD,10/23/2020
Saint-Philippe,-21.36,55.77,75.2,73,75,16.11,RE,10/23/2020
Makokou,0.57,12.86,77.02,90,100,2.19,GA,10/23/2020
Leh,34.17,77.58,36.84,59,79,3.74,IN,10/23/2020
Iqaluit,63.75,-68.51,28.4,79,90,3.36,CA,10/23/2020
Yellowknife,62.46,-114.35,21.2,92,75,8.05,CA,10/23/2020
Te Anau,-45.42,167.72,45.59,82,92,4.68,NZ,10/23/2020
Anloga,5.79,0.9,87.8,66,20,13.87,GH,10/23/2020
Mandalgovi,45.76,106.27,37.74,61,82,7.02,MN,10/23/2020
Tiksi,71.69,128.87,17.35,96,100,7.7,RU,10/23/2020
Santo Tomas,14.11,121.14,79,94,90,2.24,PH,10/23/2020
Honningsvåg,70.98,25.97,39.2,80,75,29.97,NO,10/23/2020
Kieta,-6.22,155.63,78.73,74,61,4.32,PG,10/23/2020
Qingdao,36.1,120.37,48.99,45,0,2.24,CN,10/23/2020
Bonito,-21.12,-56.48,82.72,70,62,6.6,BR,10/23/2020
Angoche,-16.23,39.91,76.08,76,0,10.89,MZ,10/23/2020
Videira,-27.01,-51.15,85.06,31,85,4.5,BR,10/23/2020
Mosetse,-20.75,26.65,87.84,19,0,13.65,BW,10/23/2020
Nangal,31.37,76.38,68.45,25,0,3.69,IN,10/23/2020
Ponta do Sol,32.67,-17.1,69.8,56,40,14.99,PT,10/23/2020
Lamu,-2.27,40.9,82.4,74,1,15.93,KE,10/23/2020
Vestmanna,62.16,-7.17,46.4,87,100,13.87,FO,10/23/2020
Saurimo,-9.66,20.39,70.21,85,92,10.09,AO,10/23/2020
Cherskiy,68.75,161.3,17.8,94,75,6.13,RU,10/23/2020
Beira,-19.84,34.84,78.8,69,0,16.11,MZ,10/23/2020
Vanavara,60.34,102.28,27.99,97,85,6.6,RU,10/23/2020
Parrita,9.52,-84.32,77,83,40,6.93,CR,10/23/2020
Ulladulla,-35.35,150.47,64.99,100,90,8.05,AU,10/23/2020
Ancud,-41.87,-73.82,57.99,81,75,6.93,CL,10/23/2020
Khandyga,62.67,135.6,10.09,93,0,1.39,RU,10/23/2020
Kulhudhuffushi,6.62,73.07,82.69,77,33,14.52,MV,10/23/2020
Mukhen,48.1,136.1,33.13,95,100,16.6,RU,10/23/2020
Puerto Ayora,-0.74,-90.35,73.4,83,75,13.87,EC,10/23/2020
Atambua,-9.11,124.89,76.44,83,69,2.17,ID,10/23/2020
Athens,37.98,23.72,77,55,0,1.79,GR,10/23/2020
Gao,16.64,1.64,98.96,9,0,17.65,ML,10/23/2020
Tasiilaq,65.61,-37.64,33.8,69,75,8.05,GL,10/23/2020
Vila Franca do Campo,37.72,-25.43,68,68,20,12.75,PT,10/23/2020
Victor Harbor,-35.57,138.62,55.99,76,76,4,AU,10/23/2020
Hay River,60.82,-115.8,21.2,92,75,10.29,CA,10/23/2020
Asău,46.43,26.4,59,63,58,5.14,RO,10/23/2020
Coyhaique,-45.58,-72.07,57.2,47,75,9.17,CL,10/23/2020
Kagoro,9.6,8.38,82.09,50,54,1.01,NG,10/23/2020
Lorengau,-2.02,147.27,81.82,73,26,6.02,PG,10/23/2020
Souillac,-20.52,57.52,75.2,69,75,10.29,MU,10/23/2020
Klaksvík,62.23,-6.59,46.4,87,100,13.87,FO,10/23/2020
Tamayo,18.39,-71.2,86,79,40,6.93,DO,10/23/2020
Thompson,55.74,-97.86,19.4,79,75,9.17,CA,10/23/2020
Dakar,14.69,-17.44,87.8,66,0,13.87,SN,10/23/2020
Yanam,16.73,82.22,84.2,74,75,9.17,IN,10/23/2020
Beringovskiy,63.05,179.32,33.78,91,42,20.33,RU,10/23/2020
Bethel,41.37,-73.41,64.99,93,90,5.82,US,10/23/2020
Obihiro,42.92,143.2,47.97,83,4,6.24,JP,10/23/2020
Mananara,-16.17,49.77,71.94,84,1,5.1,MG,10/23/2020
Nikolskoye,59.7,30.79,50,87,90,11.18,RU,10/23/2020
Dukat,62.55,155.55,20.73,88,43,6.17,RU,10/23/2020
Los Rastrojos,10.03,-69.24,86,51,20,6.93,VE,10/23/2020
Port Blair,11.67,92.75,81.82,82,100,3.76,IN,10/23/2020
Kiryat Gat,31.61,34.76,80.6,65,0,8.05,IL,10/23/2020
Ouargaye,11.5,0.06,97.21,14,0,9.71,BF,10/23/2020
Qaanaaq,77.48,-69.36,19.98,94,100,9.19,GL,10/23/2020
Stephenville,32.22,-98.2,59,87,90,19.46,US,10/23/2020
Pļaviņas,56.62,25.73,50.65,85,55,10.02,LV,10/23/2020
Bathsheba,13.22,-59.52,86,74,40,24.16,BB,10/23/2020
Bowral,-34.47,150.42,66.99,89,100,1.01,AU,10/23/2020
Port Elizabeth,-33.92,25.57,68,82,20,18.34,ZA,10/23/2020
Santa Vitória do Palmar,-33.52,-53.37,68.16,88,100,0.72,BR,10/23/2020
Biak,-0.91,122.88,77.63,82,12,0.65,ID,10/23/2020
Atuona,-9.8,-139.03,77.27,80,19,20.96,PF,10/23/2020
Mpraeso,6.59,-0.73,83.5,63,40,0.83,GH,10/23/2020
Lompoc,34.64,-120.46,62.6,77,90,3.36,US,10/23/2020
Kīhei,20.79,-156.47,71.6,68,1,0.98,US,10/23/2020
Sambava,-14.27,50.17,75.15,75,4,12.68,MG,10/23/2020
Forsytheganj,52.63,29.73,53.69,79,100,9.31,BY,10/23/2020
Srednekolymsk,67.45,153.68,13.86,90,21,1.45,RU,10/23/2020
Carnarvon,-24.87,113.63,71.6,68,0,12.75,AU,10/23/2020
General Pico,-35.66,-63.76,73.4,58,79,9.48,AR,10/23/2020
Khilok,51.37,110.47,30.34,91,12,1.43,RU,10/23/2020
Kidal,18.44,1.41,98.24,9,0,19.46,ML,10/23/2020
Cunha,-23.07,-44.96,76.73,57,26,4.21,BR,10/23/2020
Bubaque,11.28,-15.83,85.14,68,28,5.23,GW,10/23/2020
Chernihiv,51,32,57.43,63,100,8.97,UA,10/23/2020
Miles City,46.41,-105.84,10.4,92,75,5.82,US,10/23/2020
Luancheng,37.88,114.65,37.4,74,0,3.22,CN,10/23/2020
Lufilufi,-13.87,-171.6,75.2,100,75,3.36,WS,10/23/2020
Lubango,-14.92,13.49,84.2,45,75,11.41,AO,10/23/2020
Kirakira,-10.45,161.92,78.64,83,98,7.81,SB,10/23/2020
Karratha,-20.74,116.85,70.48,73,0,14.88,AU,10/23/2020
Belmonte,-15.86,-38.88,77,83,90,4.7,BR,10/23/2020
Meadow Lake,34.8,-106.54,61,29,1,3.36,US,10/23/2020
Sabang,5.89,95.32,83.17,75,100,9.08,ID,10/23/2020
Vardø,70.37,31.11,39.2,86,75,58.61,NO,10/23/2020
Ocampo,21.65,-101.5,67.96,34,2,2.44,MX,10/23/2020
Flin Flon,54.77,-101.86,23,79,90,9.17,CA,10/23/2020
Argostoli,38.18,20.49,75.2,83,0,5.82,GR,10/23/2020
Ayan,56.45,138.17,31.89,89,99,15.97,RU,10/23/2020
São Félix do Xingu,-6.64,-51.99,99.84,32,90,3.74,BR,10/23/2020
Kiama,-34.68,150.87,66.99,89,100,1.01,AU,10/23/2020
Ilulissat,69.22,-51.1,14.49,87,84,1.52,GL,10/23/2020
Morehead,37.27,-87.18,78.8,69,90,11.41,US,10/23/2020
Shakhtinsk,49.71,72.59,24.8,62,40,8.95,KZ,10/23/2020
Nosy Varika,-20.58,48.53,73.04,79,3,4.54,MG,10/23/2020
São Filipe,14.9,-24.5,81.64,73,1,12.88,CV,10/23/2020
Diapaga,12.07,1.79,97.88,11,0,10.45,BF,10/23/2020
Mata,40.68,-7.46,60.01,64,45,8.01,PT,10/23/2020
Borgarnes,64.54,-21.92,44.6,70,75,25.28,IS,10/23/2020
Kismayo,-0.36,42.55,80.89,81,72,16.2,SO,10/23/2020
Samarai,-10.62,150.67,80.04,86,62,5.93,PG,10/23/2020
Jalu,29.03,21.55,74.28,45,16,10.47,LY,10/23/2020
Katangli,51.71,143.23,48.4,93,100,36.89,RU,10/23/2020
Jasper,37.2,-94.35,42.01,86,90,19.46,US,10/23/2020
Vaitape,-16.52,-151.75,79.38,75,78,10.67,PF,10/23/2020
Dunda,-8.12,34.25,83.41,31,87,10.11,TZ,10/23/2020
Westport,41.14,-73.36,64.99,93,90,9.17,US,10/23/2020
Shiraz,29.6,52.54,59,22,0,1.12,IR,10/23/2020
Pangnirtung,66.15,-65.71,26.6,92,90,3.36,CA,10/23/2020
Chui,-33.7,-53.46,68.38,86,100,2.55,UY,10/23/2020
Hof,50.32,11.92,55.99,93,90,9.17,DE,10/23/2020
Sovetskiy,61.36,63.58,24.08,95,0,4.65,RU,10/23/2020
Camasca,14,-88.38,84.2,70,20,2.24,HN,10/23/2020
Panjāb,34.39,67.02,30.45,82,0,4.85,AF,10/23/2020
Deputatsky,69.3,139.9,1.27,88,98,3.49,RU,10/23/2020
Berdigestyakh,62.1,126.7,21.49,93,100,9.37,RU,10/23/2020
Sai Buri,6.7,101.62,75.2,100,20,3.36,TH,10/23/2020
Nyurba,63.28,118.33,34.11,89,98,12.1,RU,10/23/2020
Manono,-7.3,27.42,76.12,82,83,2.19,CD,10/23/2020
Raudeberg,61.99,5.14,44.01,73,100,11.1,NO,10/23/2020
Plettenberg Bay,-34.05,23.37,69.73,78,21,6.62,ZA,10/23/2020
Xinmin,41.99,122.83,26.6,86,0,2.24,CN,10/23/2020
Pamplona,42.82,-1.64,64,48,40,6.93,ES,10/23/2020
San Martín,-33.08,-68.47,73.4,49,0,5.82,AR,10/23/2020
Coahuayana Viejo,18.73,-103.68,78.8,78,40,0.38,MX,10/23/2020
Katobu,-4.94,122.53,77.43,86,21,3.98,ID,10/23/2020
Progreso,21.28,-89.67,88,79,75,6.93,MX,10/23/2020
Komsomol'skoye,55.26,47.55,44.2,96,100,7.99,RU,10/23/2020
Khovd,48.01,91.64,37.96,67,100,0.54,MN,10/23/2020
Arraial do Cabo,-22.97,-42.03,80.6,54,20,16.11,BR,10/23/2020
Labuhan,-6.88,112.21,81.3,75,46,3.96,ID,10/23/2020
Kailua,21.4,-157.74,80.6,78,75,6.46,US,10/23/2020
Sun Valley,39.6,-119.78,41,47,20,2.84,US,10/23/2020
Port Hedland,-20.32,118.57,73.4,88,0,11.41,AU,10/23/2020
Batagay-Alyta,67.8,130.41,7.99,91,100,5.53,RU,10/23/2020
Sitka,57.05,-135.33,33.8,37,1,4.7,US,10/23/2020
Lázaro Cárdenas,17.96,-102.2,84.85,71,31,1.48,MX,10/23/2020
Avera,33.19,-82.53,78.8,74,40,5.82,US,10/23/2020
Brandenburg,52.42,12.55,62.01,10,99,1.3,DE,10/23/2020
Vieste,41.88,16.18,66.2,63,40,11.41,IT,10/23/2020
Lavrentiya,65.58,-171,33.75,91,74,9.46,RU,10/23/2020
Hasaki,35.73,140.83,62.6,93,75,6.93,JP,10/23/2020
Fairbanks,64.84,-147.72,18,84,1,3.33,US,10/23/2020
Médéa,36.26,2.75,75.2,50,40,10.29,DZ,10/23/2020
Nouadhibou,20.93,-17.03,78.8,57,99,17.22,MR,10/23/2020
Lata,40.16,-8.33,66.99,72,62,7,PT,10/23/2020
Shibetsu,43.66,145.13,53.96,82,58,10.11,JP,10/23/2020
Makakilo City,21.35,-158.09,80.6,69,90,12.75,US,10/23/2020
Big Spring,32.25,-101.48,48.2,70,90,21.92,US,10/23/2020
Esim,4.87,-2.24,81.5,78,98,8.1,GH,10/23/2020
Constitución,-35.33,-72.42,60.31,61,1,11.41,CL,10/23/2020
Rosetta,31.4,30.42,77,65,40,10.29,EG,10/23/2020
Kathu,7.92,98.33,75.2,100,75,1.12,TH,10/23/2020
Vagay,57.94,69.02,24.33,91,95,4.47,RU,10/23/2020
Atlantic City,39.36,-74.42,66,93,90,4.7,US,10/23/2020
Biltine,14.53,20.92,93.81,11,0,8.32,TD,10/23/2020
Hofn,64.25,-15.21,46.4,81,90,17.22,IS,10/23/2020
Outlook,51.5,-107.05,19,77,0,5.19,CA,10/23/2020
Beloha,-25.17,45.05,73.47,74,84,19.51,MG,10/23/2020
Oga,46.46,10.35,50,87,75,4.7,IT,10/23/2020
Banda Aceh,5.56,95.32,81.28,77,99,5.68,ID,10/23/2020
Berlevåg,70.86,29.09,37.4,86,75,39.15,NO,10/23/2020
Mahébourg,-20.41,57.7,75.2,69,75,10.29,MU,10/23/2020
Pahlgām,34.03,75.33,44.26,54,3,2.71,IN,10/23/2020
Iquitos,-3.75,-73.25,84.2,74,40,3.36,PE,10/23/2020
Cambridge,43.36,-80.31,73.99,82,40,13.87,CA,10/23/2020
Torbay,47.67,-52.73,46,66,75,9.17,CA,10/23/2020
Novikovo,51.15,37.89,56.95,72,100,8.52,RU,10/23/2020
Nuuk,64.18,-51.72,30.2,63,75,10.29,GL,10/23/2020
Pacific Grove,36.62,-121.92,60.01,82,90,4.7,US,10/23/2020
Codrington,-38.27,141.97,52.43,87,100,14.34,AU,10/23/2020
Ondjiva,-17.07,15.73,96.12,13,81,2.91,AO,10/23/2020
Santa Cruz de la Sierra,-17.8,-63.17,93.2,46,75,13.87,BO,10/23/2020
Yar-Sale,66.83,70.83,20.25,94,75,8.43,RU,10/23/2020
Guapiaçu,-20.8,-49.22,85.39,55,29,10.51,BR,10/23/2020
Evensk,61.95,159.23,33.4,90,94,4.34,RU,10/23/2020
Clyde River,70.47,-68.59,19.4,85,90,6.93,CA,10/23/2020
Khatanga,71.97,102.5,6.8,95,100,7.02,RU,10/23/2020
Panabá,21.28,-88.27,84.29,79,20,4.09,MX,10/23/2020
Yamada,39.47,141.95,53.87,78,0,6.17,JP,10/23/2020
Gamboula,4.12,15.14,76.24,92,100,1.36,CF,10/23/2020
Elko,41,-115.5,19.4,48,1,3.4,US,10/23/2020
Kununurra,-15.77,128.73,84.2,66,82,4.7,AU,10/23/2020
Sarab,38.61,44.99,63.3,33,0,3.51,IR,10/23/2020
Airai,-8.93,125.41,63.05,100,82,0.76,TL,10/23/2020
Yur’yevets,57.32,43.1,47.95,93,89,12.35,RU,10/23/2020
Saint-Paul,-21.01,55.27,75.2,69,40,11.41,RE,10/23/2020
Broken Hill,-31.95,141.43,62.6,93,75,16.11,AU,10/23/2020
Touros,-5.2,-35.46,84.2,70,75,19.46,BR,10/23/2020
Hwange,-18.37,26.5,91.9,15,41,5.57,ZW,10/23/2020
Chengzhong,30.95,113.55,60.8,51,34,8.95,CN,10/23/2020
Ouadda,8.08,22.4,75.31,80,79,2.08,CF,10/23/2020
San Andrés,12.58,-81.7,86,74,40,2.24,CO,10/23/2020
Harlingen,26.19,-97.7,84,83,75,8.05,US,10/23/2020
Krasnyy Yar,46.53,48.35,53.6,81,0,8.95,RU,10/23/2020
Petropavlovsk-Kamchatskiy,53.05,158.65,35.6,80,75,11.18,RU,10/23/2020
Paamiut,61.99,-49.67,32.41,85,68,26.55,GL,10/23/2020
Santa Pola,38.19,-0.57,71.6,56,20,9.17,ES,10/23/2020
Balkanabat,39.51,54.37,58.89,64,5,7.16,TM,10/23/2020
Maceió,-9.67,-35.74,84.2,62,40,12.75,BR,10/23/2020
Port Hardy,50.7,-127.42,41,93,90,24.16,CA,10/23/2020
Ruteng,-8.61,120.47,64.8,100,70,2.57,ID,10/23/2020
Cabaiguán,22.08,-79.5,80.6,78,75,10.29,CU,10/23/2020
Calvinia,-31.47,19.78,84.13,18,5,10.33,ZA,10/23/2020
Saint Anthony,45.02,-93.22,34,86,90,9.17,US,10/23/2020
Williston,48.15,-103.62,12,82,0,1.01,US,10/23/2020
Aligoodarz,33.4,49.69,53.19,36,6,4.23,IR,10/23/2020
Les Trois-Îlets,14.54,-61.04,89.6,66,20,19.46,MQ,10/23/2020
Hakodate,41.78,140.74,52.29,77,82,15.84,JP,10/23/2020
Edd,13.93,41.69,86.38,65,22,3.49,ER,10/23/2020
Taupo,-38.68,176.08,55.99,90,49,1.01,NZ,10/23/2020
Itoman,26.12,127.67,71.6,60,75,20.8,JP,10/23/2020
Kamyshevatskaya,46.41,37.96,61.83,87,1,13.13,RU,10/23/2020
Malumfashi,11.79,7.62,88.59,24,39,6.51,NG,10/23/2020
Sukhobezvodnoye,57.05,44.89,42.62,95,89,7.38,RU,10/23/2020
Sistranda,63.73,8.83,39.2,86,40,6.93,NO,10/23/2020
Lethem,3.38,-59.8,97.54,36,3,7.58,GY,10/23/2020
Arecibo,18.47,-66.72,90,72,0,1.01,PR,10/23/2020
Athabasca,54.72,-113.29,15.35,88,1,2.46,CA,10/23/2020
Kichera,55.94,110.1,33.75,83,12,1.34,RU,10/23/2020
Teeli,51.03,90.23,31.62,90,99,1.45,RU,10/23/2020
Lyngseidet,69.58,20.22,37.4,96,75,4.7,NO,10/23/2020
Vostok,46.49,135.88,25.25,100,100,17.9,RU,10/23/2020
Poum,-20.23,164.02,76.23,77,2,6.73,NC,10/23/2020
Taksimo,56.34,114.88,22.33,91,59,0.76,RU,10/23/2020
Lieksa,63.32,30.02,34.61,89,100,13.76,FI,10/23/2020
Warr Acres,35.52,-97.62,43,75,90,25.28,US,10/23/2020
Angoulême,45.65,0.15,63,87,48,5.82,FR,10/23/2020
Sisimiut,66.94,-53.67,25.88,90,56,6.33,GL,10/23/2020
Bath,51.38,-2.36,53.01,76,95,5.01,GB,10/23/2020
Departamento de Maldonado,-34.67,-54.92,71.6,78,40,4.7,UY,10/23/2020
Gusinoye Ozero,51.11,106.26,31.82,94,3,3.29,RU,10/23/2020
Atikokan,48.76,-91.62,31.41,90,89,6.26,CA,10/23/2020
Gudāri,19.35,83.78,73.35,84,98,2.1,IN,10/23/2020
Santa Isabel Rio Negro,-0.41,-65.02,94.82,48,76,2.64,BR,10/23/2020
Tsimmerbude,54.67,20.13,53.6,81,75,8.95,RU,10/23/2020
Abu Samrah,35.3,37.18,76.53,19,0,9.28,SY,10/23/2020
Broome,42.25,-75.83,73,77,1,8.05,US,10/23/2020
Sunnyside,46.32,-120.01,28.4,86,40,2.35,US,10/23/2020
Nanchong,30.8,106.08,66.99,62,91,3.18,CN,10/23/2020
Alyangula,-13.85,136.42,82.4,78,54,8.05,AU,10/23/2020
Bambous Virieux,-20.34,57.76,75.2,69,75,10.29,MU,10/23/2020
Tuatapere,-46.13,167.68,54,75,73,7,NZ,10/23/2020
Mount Gambier,-37.83,140.77,50,87,40,13.87,AU,10/23/2020
Yulara,-25.24,130.99,64.4,55,0,10.29,AU,10/23/2020
Palu,-0.89,119.87,76.8,81,26,2.51,ID,10/23/2020
Salta,-24.79,-65.41,80.6,51,75,11.41,AR,10/23/2020
Laguna,38.42,-121.42,57,43,1,6.11,US,10/23/2020
Vao,-22.67,167.48,73.56,87,5,17.83,NC,10/23/2020
Sola,-13.88,167.55,78.37,86,79,19.53,VU,10/23/2020
Ortaköy,38.74,34.04,71.6,28,40,3.36,TR,10/23/2020
Zhigansk,66.77,123.37,25.57,96,100,35.37,RU,10/23/2020
Almaznyy,48.04,40.05,60.8,77,0,11.18,RU,10/23/2020
Kavaratti,10.57,72.64,81.46,73,97,14.9,IN,10/23/2020
Portland,45.52,-122.68,42.01,86,75,3.36,US,10/23/2020
Salalah,17.02,54.09,82.4,74,0,3.36,OM,10/23/2020
Myszków,50.58,19.32,57.2,71,0,3.36,PL,10/23/2020
Sechura,-5.56,-80.82,73.9,58,9,9.73,PE,10/23/2020
Santa Barbara,34.73,-120.03,61,82,1,4.59,US,10/23/2020
Pointe-Noire,-4.78,11.86,80.6,83,75,11.41,CG,10/23/2020
Tiarei,-17.53,-149.33,73.4,83,75,2.24,PF,10/23/2020
Palmer,42.16,-72.33,64.99,100,90,4.7,US,10/23/2020
La Palma,33.85,-118.05,69.01,68,90,4.65,US,10/23/2020
Henties Bay,-22.12,14.28,64.99,80,72,9.15,NA,10/23/2020
Ishigaki,24.34,124.16,73.17,73,94,25.57,JP,10/23/2020
Skagen,57.72,10.58,52,74,1,7,DK,10/23/2020
Concordia,-31.39,-58.02,73.4,83,90,11.41,AR,10/23/2020
Mazagão,-0.12,-51.29,93.2,56,40,13.87,BR,10/23/2020
Pandan Niog,6.23,120.56,83.43,75,98,5.1,PH,10/23/2020
High Level,58.52,-117.14,17.6,92,75,2.24,CA,10/23/2020
Goderich,43.75,-81.72,71.01,80,50,14,CA,10/23/2020
Lagoa,39.05,-27.98,65.5,79,17,17.6,PT,10/23/2020
Matara,5.95,80.54,79,86,10,9.62,LK,10/23/2020
La Seyne-sur-Mer,43.1,5.88,66,85,100,5.01,FR,10/23/2020
Sindal,57.47,10.2,51.01,92,19,1.01,DK,10/23/2020
Colares,38.8,-9.45,66,59,20,9.17,PT,10/23/2020
Jérémie,18.65,-74.12,82.51,71,93,4.7,HT,10/23/2020
Capão da Canoa,-29.75,-50.01,69.69,86,100,18.75,BR,10/23/2020
Anbu,23.45,116.68,73.4,43,0,6.71,CN,10/23/2020
Narsaq,60.92,-46.05,28.4,63,75,1.12,GL,10/23/2020
Phuket,8,98.25,75.2,100,75,1.12,TH,10/23/2020
Peniche,39.36,-9.38,66,66,26,4,PT,10/23/2020
Constantine,36.37,6.61,78.8,41,0,10.29,DZ,10/23/2020
Sobolevo,54.43,31.9,51.93,90,52,10.92,RU,10/23/2020
Omsukchan,62.53,155.8,19.15,88,48,6.06,RU,10/23/2020
Yarmouth,41.71,-70.23,66.2,59,1,8.25,US,10/23/2020
Naze,28.37,129.48,69.8,64,75,17.22,JP,10/23/2020
Homer,59.64,-151.55,41,86,90,7.9,US,10/23/2020
Bilma,18.69,12.92,91.49,12,0,5.06,NE,10/23/2020
Anadyr,64.75,177.48,24.8,92,75,6.71,RU,10/23/2020
Iskateley,67.68,53.15,20.89,96,85,8.95,RU,10/23/2020
Mīzan Teferī,6.98,35.58,64.18,90,39,1.01,ET,10/23/2020
Odesskoye,54.21,72.97,28.6,90,96,9.64,RU,10/23/2020
Kenai,60.55,-151.26,37,59,90,9.17,US,10/23/2020
Ossora,59.24,163.07,36.97,79,0,3.27,RU,10/23/2020
Muros,42.78,-9.06,62.01,77,93,8.01,ES,10/23/2020
West Bay,19.37,-81.42,82,94,40,18.57,KY,10/23/2020
Antequera,37.02,-4.56,73.99,60,40,10.29,ES,10/23/2020
Huarmey,-10.07,-78.15,69.12,67,93,10.94,PE,10/23/2020
Sawākin,19.11,37.33,84.18,66,0,6.85,SD,10/23/2020
Xining,36.62,101.77,45.82,53,91,2.13,CN,10/23/2020
Saint Lawrence,36.06,14.2,71.01,68,20,4.7,MT,10/23/2020
Ise,34.48,136.7,57.99,78,0,7,JP,10/23/2020
Egvekinot,66.32,-179.17,24.58,95,2,10.69,RU,10/23/2020
Jacareacanga,-6.22,-57.75,94.73,44,73,3.74,BR,10/23/2020
Norman Wells,65.28,-126.83,19.4,92,90,2.24,CA,10/23/2020
Tilichiki,60.47,166.1,29.98,96,0,5.08,RU,10/23/2020
Sur,22.57,59.53,78.17,61,0,8.55,OM,10/23/2020
Syamzha,60.02,41.06,43.34,97,100,6.44,RU,10/23/2020
Ambon City,-3.7,128.18,78.01,88,20,6.93,ID,10/23/2020
Clarence Town,-32.58,151.78,70,83,100,10.29,AU,10/23/2020
Mount Isa,-20.73,139.5,69.8,77,25,5.82,AU,10/23/2020
Ulundi,-28.34,31.42,73.53,68,0,8.1,ZA,10/23/2020
Elliot Lake,46.38,-82.63,42.8,100,90,12.75,CA,10/23/2020
Akdepe,42.06,59.38,55.4,50,0,6.93,TM,10/23/2020
Manado,1.49,124.85,75.2,94,20,2.24,ID,10/23/2020
Kachīry,53.07,76.1,33.94,79,100,8.63,KZ,10/23/2020
Arrifes,37.77,-25.7,68,68,20,12.75,PT,10/23/2020
Malartic,48.13,-78.13,35.6,100,90,9.17,CA,10/23/2020
Barcelos,41.54,-8.62,62.6,72,0,8.05,PT,10/23/2020
Nanortalik,60.14,-45.24,35.51,81,100,5.99,GL,10/23/2020
Puri,19.8,85.85,80.6,94,40,4.7,IN,10/23/2020
Pemangkat,1.17,108.97,80.78,78,100,3.51,ID,10/23/2020
Tual,-5.67,132.75,82.2,82,70,9.01,ID,10/23/2020
Wanning,18.8,110.4,72.81,63,100,15.75,CN,10/23/2020
Cockburn Town,21.46,-71.14,82.62,80,27,18.9,TC,10/23/2020
Noumea,-22.28,166.46,75.2,69,0,3.36,NC,10/23/2020
Gurupá,-1.41,-51.64,94.23,45,18,4.68,BR,10/23/2020
Khuzhir,53.19,107.34,39.29,73,0,2.3,RU,10/23/2020
Dipalpur,30.67,73.65,74.23,20,0,5.48,PK,10/23/2020
Pampa,35.54,-100.96,35.6,74,90,20.8,US,10/23/2020
Chhor,25.52,69.77,87.67,13,0,10.29,PK,10/23/2020
Dumraon,25.55,84.15,78.13,63,14,5.01,IN,10/23/2020
Qinhuangdao,39.93,119.59,46.45,50,0,2.42,CN,10/23/2020
Kumul,42.8,93.45,48.96,41,1,2.19,CN,10/23/2020
Bara,10.37,10.73,92.14,28,2,4.5,NG,10/23/2020
Kattivākkam,13.22,80.32,80.6,88,75,2.24,IN,10/23/2020
Jimeta,9.28,12.47,93.15,35,88,3.44,NG,10/23/2020
Carlisle,40.2,-77.19,68,77,90,5.82,US,10/23/2020
Tarko-Sale,64.92,77.78,17.15,97,86,10.6,RU,10/23/2020
Mandiana,10.63,-8.68,91.51,40,6,6.82,GN,10/23/2020
Staszów,50.56,21.17,57,74,98,1.99,PL,10/23/2020
Krasnosel'kup,65.7,82.47,13.55,96,92,8.34,RU,10/23/2020
Camaná,-16.62,-72.71,68.59,66,63,10.38,PE,10/23/2020
Jiayuguan City,39.82,98.3,40.23,57,16,0.31,CN,10/23/2020
Mossamedes,-15.2,12.15,70.97,82,75,14.72,AO,10/23/2020
Gusev,54.59,22.2,50.95,82,71,7.14,RU,10/23/2020
College,64.86,-147.8,18,84,1,3.36,US,10/23/2020
Port Augusta,-32.5,137.77,57.2,87,90,23.04,AU,10/23/2020
Nerchinskiy Zavod,51.31,119.61,27.19,90,0,1.97,RU,10/23/2020
Laas,46.62,10.7,53.01,100,90,3.36,IT,10/23/2020
Shingū,33.73,135.98,52.97,81,0,6.35,JP,10/23/2020
Birao,10.28,22.79,85.21,41,55,0.94,CF,10/23/2020
Bereket,39.24,55.52,55.89,45,33,2.89,TM,10/23/2020
Auki,-8.77,160.7,77.11,83,87,3.69,SB,10/23/2020
Batī,11.18,40.02,72.23,30,90,2.84,ET,10/23/2020
Ixtapa,20.7,-105.2,84.2,83,40,3.36,MX,10/23/2020
Lodja,-3.48,23.43,76.66,90,77,2.33,CD,10/23/2020
Dudinka,69.41,86.18,-2.2,84,40,11.18,RU,10/23/2020
Rocha,-34.48,-54.33,68.45,84,99,4.41,UY,10/23/2020
Kiruna,67.86,20.23,26.6,79,91,13.87,SE,10/23/2020
Ormara,25.21,64.64,82.62,36,0,10.58,PK,10/23/2020
Pundaguitan,6.37,126.17,82.17,77,100,7.72,PH,10/23/2020
Wewak,-3.55,143.63,79.05,79,76,4.23,PG,10/23/2020
Njinikom,6.23,10.28,69.42,90,77,2.46,CM,10/23/2020
Rabūpura,28.25,77.6,82.99,38,0,4.92,IN,10/23/2020
Wawa,9.9,4.42,90.05,36,30,2.84,NG,10/23/2020
Teknāf,20.86,92.31,80.33,88,100,18.03,BD,10/23/2020
Staryy Nadym,65.61,72.68,17.62,97,85,10.45,RU,10/23/2020
Graaff-Reinet,-32.25,24.53,84.99,36,77,5.01,ZA,10/23/2020
Ekhabi,53.51,142.97,46.78,95,100,28.74,RU,10/23/2020
Santiago,-33.46,-70.65,79,46,3,4.7,CL,10/23/2020
Les Cayes,18.2,-73.75,82.47,80,100,12.37,HT,10/23/2020
Methven,-43.63,171.65,46,97,81,7,NZ,10/23/2020
Uglovskoye,51.36,80.19,34.83,77,88,2.71,RU,10/23/2020
Udachny,66.42,112.4,23,67,90,15.66,RU,10/23/2020
Hamilton,39.18,-84.53,75,78,75,9.17,US,10/23/2020
Verkhnyaya Inta,65.98,60.31,22.84,97,99,12.03,RU,10/23/2020
Villa Carlos Paz,-31.42,-64.5,69.01,86,99,2.98,AR,10/23/2020
Dilla,6.41,38.31,63.91,79,31,4.5,ET,10/23/2020
Roquetas de Mar,36.76,-2.61,69.8,60,20,19.46,ES,10/23/2020
Kayes,14,-11,102.2,27,0,4.7,ML,10/23/2020
Jining,35.41,116.58,48.85,44,0,4.59,CN,10/23/2020
Creston,41.06,-94.36,35.6,100,90,20.8,US,10/23/2020
Jackson,42.42,-122.83,35.6,74,1,1.3,US,10/23/2020
Sangar,63.92,127.47,19.58,93,100,19.69,RU,10/23/2020
Maïné Soroa,13.21,12.02,96.28,10,18,13.98,NE,10/23/2020
Kloulklubed,7.04,134.26,78.8,88,75,8.43,PW,10/23/2020
Traverse City,44.76,-85.62,46.4,87,90,10.29,US,10/23/2020
San Policarpo,12.18,125.51,79.61,84,100,5.01,PH,10/23/2020
Burns Lake,54.23,-125.75,20.16,94,100,5.06,CA,10/23/2020
Coquimbo,-29.95,-71.34,53.6,87,90,6.93,CL,10/23/2020
Predivinsk,57.07,93.44,36.77,82,100,8.19,RU,10/23/2020
Muriwai Beach,-36.82,174.45,60.01,95,64,4.74,NZ,10/23/2020
Isangel,-19.55,169.27,74.95,82,100,13.33,VU,10/23/2020
Pakruojis,55.97,23.87,53.6,81,75,8.05,LT,10/23/2020
Kofelē,7.07,38.78,53.74,83,69,1.03,ET,10/23/2020
Bowen,-20.02,148.23,71.6,88,100,1.41,AU,10/23/2020
Mangit,40.6,70.96,48.2,76,99,6.93,UZ,10/23/2020
Kungurtug,50.6,97.52,33.84,80,100,1.95,RU,10/23/2020
Litovko,49.24,135.17,37.13,82,100,11.54,RU,10/23/2020
Kyritz,52.94,12.4,55.99,92,88,3.58,DE,10/23/2020
Hābra,22.83,88.63,75.2,94,75,4.7,IN,10/23/2020
Vila Velha,-20.33,-40.29,79,69,20,8.05,BR,10/23/2020
Salina,38.84,-97.61,37.99,74,90,18.34,US,10/23/2020
Galesong,-5.32,119.37,77,100,20,1.12,ID,10/23/2020
Tirlyanskiy,54.21,58.58,23.81,93,59,1.99,RU,10/23/2020
Ipojuca,-8.4,-35.06,86,66,40,14.99,BR,10/23/2020
Plaeng Yao,13.58,101.28,84.99,69,20,5.82,TH,10/23/2020
Farafangana,-22.82,47.83,73.42,82,0,9.17,MG,10/23/2020
Thai Binh,20.45,106.33,71.6,83,0,2.24,VN,10/23/2020
